[{"casualties": [{"county": "ALLEGANY", "hometown": " MOUNT SAVAGE", "hasphoto": true, "countyid": 1, "longitude": -78.87974, "lname": "WRIGHT", "badloc": false, "recid": 1033, "fname": "DONALD LEE", "photo": null, "latitude": 39.69564}, {"county": "ALLEGANY", "hometown": " CUMBERLAND", "hasphoto": true, "countyid": 1, "longitude": -78.75696, "lname": "CASE", "badloc": false, "recid": 128, "fname": "JAMES GILBERT", "photo": null, "latitude": 39.64009}, {"county": "ALLEGANY", "hometown": "LONACONING", "hasphoto": true, "countyid": 1, "longitude": -78.9803, "lname": "CRAWFORD", "badloc": false, "recid": 173, "fname": "KENNETH D.", "photo": null, "latitude": 39.56592}, {"county": "ALLEGANY", "hometown": " CUMBERLAND", "hasphoto": true, "countyid": 1, "longitude": -78.75696, "lname": "ARONHALT", "badloc": false, "recid": 18, "fname": "CHARLES E JR", "photo": null, "latitude": 39.64009}, {"county": "ALLEGANY", "hometown": " CUMBERLAND", "hasphoto": true, "countyid": 1, "longitude": -78.75696, "lname": "ARROWOOD", "badloc": false, "recid": 19, "fname": "JAMES OSCAR", "photo": null, "latitude": 39.64009}, {"county": "ALLEGANY", "hometown": " FROSTBURG", "hasphoto": true, "countyid": 1, "longitude": -78.92836, "lname": "DAVIS", "badloc": false, "recid": 196, "fname": "THOMAS RAYMOND", "photo": null, "latitude": 39.65814}, {"county": "ALLEGANY", "hometown": " CUMBERLAND", "hasphoto": true, "countyid": 1, "longitude": -78.75696, "lname": "DONAHUE", "badloc": false, "recid": 225, "fname": "WELLINGTON MARTIN", "photo": null, "latitude": 39.64009}, {"county": "ALLEGANY", "hometown": " CUMBERLAND", "hasphoto": true, "countyid": 1, "longitude": -78.75696, "lname": "DURBIN", "badloc": false, "recid": 239, "fname": "RONALD WAYNE", "photo": null, "latitude": 39.64009}, {"county": "ALLEGANY", "hometown": " CUMBERLAND", "hasphoto": true, "countyid": 1, "longitude": -78.75696, "lname": "BAKER", "badloc": false, "recid": 28, "fname": "FREDERICK NORMAN", "photo": null, "latitude": 39.64009}, {"county": "ALLEGANY", "hometown": " CUMBERLAND", "hasphoto": true, "countyid": 1, "longitude": -78.75696, "lname": "GENTRY", "badloc": false, "recid": 283, "fname": "CHARLES EDWARD", "photo": null, "latitude": 39.64009}, {"county": "ALLEGANY", "hometown": " FROSTBURG", "hasphoto": true, "countyid": 1, "longitude": -78.92836, "lname": "GRAHAM", "badloc": false, "recid": 304, "fname": "JAMES ALBERT", "photo": null, "latitude": 39.65814}, {"county": "ALLEGANY", "hometown": " CUMBERLAND", "hasphoto": true, "countyid": 1, "longitude": -78.75696, "lname": "HARTSOCK", "badloc": false, "recid": 329, "fname": "ROBERT WILLARD", "photo": null, "latitude": 39.64009}, {"county": "ALLEGANY", "hometown": " CUMBERLAND", "hasphoto": true, "countyid": 1, "longitude": -78.75696, "lname": "BARKLEY", "badloc": false, "recid": 35, "fname": "KENNETH PAUL JR", "photo": null, "latitude": 39.64009}, {"county": "ALLEGANY", "hometown": " ELLERSLIE", "hasphoto": true, "countyid": 1, "longitude": -78.77419, "lname": "LOWERY", "badloc": false, "recid": 376, "fname": "RICHARD HOMER", "photo": null, "latitude": 39.72064}, {"county": "ALLEGANY", "hometown": " CUMBERLAND", "hasphoto": true, "countyid": 1, "longitude": -78.75696, "lname": "MARTIN", "badloc": false, "recid": 396, "fname": "ROBERT HARRISON JR", "photo": null, "latitude": 39.64009}, {"county": "ALLEGANY", "hometown": " CUMBERLAND", "hasphoto": true, "countyid": 1, "longitude": -78.75696, "lname": "MC DONALD", "badloc": false, "recid": 415, "fname": "ROY LAWRENCE", "photo": null, "latitude": 39.64009}, {"county": "ALLEGANY", "hometown": " CUMBERLAND", "hasphoto": true, "countyid": 1, "longitude": -78.75696, "lname": "PROPST", "badloc": false, "recid": 464, "fname": "WILLIAM EARL", "photo": null, "latitude": 39.64009}, {"county": "ALLEGANY", "hometown": " CUMBERLAND", "hasphoto": true, "countyid": 1, "longitude": -78.75696, "lname": "HARE", "badloc": false, "recid": 534, "fname": "JOHN THOMAS", "photo": null, "latitude": 39.64009}, {"county": "ALLEGANY", "hometown": " CUMBERLAND", "hasphoto": true, "countyid": 1, "longitude": -78.75696, "lname": "KIMMELL", "badloc": false, "recid": 596, "fname": "GEORGE SAMUEL", "photo": null, "latitude": 39.64009}, {"county": "ALLEGANY", "hometown": " CUMBERLAND", "hasphoto": true, "countyid": 1, "longitude": -78.75696, "lname": "KLINE", "badloc": false, "recid": 606, "fname": "MARK LEE", "photo": null, "latitude": 39.64009}, {"county": "ALLEGANY", "hometown": " CUMBERLAND", "hasphoto": true, "countyid": 1, "longitude": -78.75696, "lname": "KOCH", "badloc": false, "recid": 610, "fname": "EDWARD STEPHEN", "photo": null, "latitude": 39.64009}, {"county": "ALLEGANY", "hometown": " CUMBERLAND", "hasphoto": true, "countyid": 1, "longitude": -78.75696, "lname": "MC MAHON", "badloc": false, "recid": 654, "fname": "THOMAS JOHN", "photo": null, "latitude": 39.64009}, {"county": "ALLEGANY", "hometown": " FROSTBURG", "hasphoto": true, "countyid": 1, "longitude": -78.92836, "lname": "MILLER", "badloc": false, "recid": 665, "fname": "CLARENCE DALE", "photo": null, "latitude": 39.65814}, {"county": "ALLEGANY", "hometown": " CUMBERLAND", "hasphoto": true, "countyid": 1, "longitude": -78.75696, "lname": "MONNETT", "badloc": false, "recid": 673, "fname": "LEONARD ALLEN", "photo": null, "latitude": 39.64009}, {"county": "ALLEGANY", "hometown": " CUMBERLAND", "hasphoto": true, "countyid": 1, "longitude": -78.75696, "lname": "BITTINGER", "badloc": false, "recid": 72, "fname": "ROBERT LEE JR", "photo": null, "latitude": 39.64009}, {"county": "ALLEGANY", "hometown": " CUMBERLAND", "hasphoto": true, "countyid": 1, "longitude": -78.75696, "lname": "RANDOLPH", "badloc": false, "recid": 740, "fname": "MICHAEL JAMES", "photo": null, "latitude": 39.64009}, {"county": "ALLEGANY", "hometown": " CUMBERLAND", "hasphoto": true, "countyid": 1, "longitude": -78.75696, "lname": "ROWLEY", "badloc": false, "recid": 805, "fname": "JOSEPH PATRICK", "photo": null, "latitude": 39.64009}, {"county": "ALLEGANY", "hometown": " CUMBERLAND", "hasphoto": true, "countyid": 1, "longitude": -78.75696, "lname": "RUPPERT", "badloc": false, "recid": 812, "fname": "FRANCIS GROVER", "photo": null, "latitude": 39.64009}, {"county": "ALLEGANY", "hometown": " CUMBERLAND", "hasphoto": true, "countyid": 1, "longitude": -78.75696, "lname": "SAVILLE", "badloc": false, "recid": 825, "fname": "JOHN DERWOOD JR", "photo": null, "latitude": 39.64009}, {"county": "ALLEGANY", "hometown": " CUMBERLAND", "hasphoto": true, "countyid": 1, "longitude": -78.75696, "lname": "SHARP", "badloc": false, "recid": 851, "fname": "JOHN DAVID", "photo": null, "latitude": 39.64009}, {"county": "ALLEGANY", "hometown": " CUMBERLAND", "hasphoto": true, "countyid": 1, "longitude": -78.75696, "lname": "TORRINGTON", "badloc": false, "recid": 940, "fname": "THOMAS JACOB", "photo": null, "latitude": 39.64009}, {"county": "ALLEGANY", "hometown": " CUMBERLAND", "hasphoto": true, "countyid": 1, "longitude": -78.75696, "lname": "TWIGG", "badloc": false, "recid": 949, "fname": "JOSEPH RICHARD JR", "photo": null, "latitude": 39.64009}, {"county": "ALLEGANY", "hometown": " CUMBERLAND", "hasphoto": true, "countyid": 1, "longitude": -78.75696, "lname": "UMSTOT", "badloc": false, "recid": 952, "fname": "CLARENCE EDWARD", "photo": null, "latitude": 39.64009}, {"county": "ALLEGANY", "hometown": " MOUNT SAVAGE", "hasphoto": true, "countyid": 1, "longitude": -78.87974, "lname": "WALSH", "badloc": false, "recid": 966, "fname": "ROBERT DALE", "photo": null, "latitude": 39.69564}, {"county": "ALLEGANY", "hometown": " CUMBERLAND", "hasphoto": true, "countyid": 1, "longitude": -78.75696, "lname": "WERTMAN", "badloc": false, "recid": 987, "fname": "JOHN THOMAS", "photo": null, "latitude": 39.64009}, {"county": "ALLEGANY", "hometown": " FROSTBURG", "hasphoto": true, "countyid": 1, "longitude": -78.92836, "lname": "WHITEFIELD", "badloc": false, "recid": 992, "fname": "CHARLES ELMER", "photo": null, "latitude": 39.65814}, {"county": "ALLEGANY", "hometown": " CUMBERLAND", "hasphoto": true, "countyid": 1, "longitude": -78.75696, "lname": "WILFONG", "badloc": false, "recid": 998, "fname": "ROGER DALE", "photo": null, "latitude": 39.64009}], "countyid": 1}, {"casualties": [{"county": "ANNE ARUNDEL", "hometown": " ANNAPOLIS", "hasphoto": true, "countyid": 3, "longitude": -76.49218, "lname": "WRIGHT", "badloc": false, "recid": 1030, "fname": "ALBERT FLOYD JR", "photo": null, "latitude": 38.97845}, {"county": "ANNE ARUNDEL", "hometown": " ANNAPOLIS", "hasphoto": true, "countyid": 3, "longitude": -76.49218, "lname": "WRIGHT", "badloc": false, "recid": 1031, "fname": "DAVID IRVIN", "photo": null, "latitude": 38.97845}, {"county": "ANNE ARUNDEL", "hometown": " GLEN BURNIE", "hasphoto": true, "countyid": 3, "longitude": -76.62469, "lname": "YOUNGHAM", "badloc": false, "recid": 1041, "fname": "JAMES DOMINIO", "photo": null, "latitude": 39.16261}, {"county": "ANNE ARUNDEL", "hometown": " GLEN BURNIE", "hasphoto": true, "countyid": 3, "longitude": -76.62469, "lname": "CARTER", "badloc": false, "recid": 126, "fname": "HARVEY WILLIAM", "photo": null, "latitude": 39.16261}, {"county": "ANNE ARUNDEL", "hometown": " HARWOOD", "hasphoto": true, "countyid": 3, "longitude": -76.61996, "lname": "CHAPMAN", "badloc": false, "recid": 133, "fname": "MAURICE P JR", "photo": null, "latitude": 38.86539}, {"county": "ANNE ARUNDEL", "hometown": " GAMBRILLS", "hasphoto": true, "countyid": 3, "longitude": -76.66524, "lname": "COLE", "badloc": false, "recid": 151, "fname": "RAINER LOUIS", "photo": null, "latitude": 39.06705}, {"county": "ANNE ARUNDEL", "hometown": " ANNAPOLIS", "hasphoto": true, "countyid": 3, "longitude": -76.49218, "lname": "COOK", "badloc": false, "recid": 158, "fname": "WILMER PAUL", "photo": null, "latitude": 38.97845}, {"county": "ANNE ARUNDEL", "hometown": " PASADENA", "hasphoto": true, "countyid": 3, "longitude": -76.57108, "lname": "CRAIG", "badloc": false, "recid": 172, "fname": "DEAN JOHN", "photo": null, "latitude": 39.10733}, {"county": "ANNE ARUNDEL", "hometown": " ANNAPOLIS", "hasphoto": true, "countyid": 3, "longitude": -76.49218, "lname": "DE MEY", "badloc": false, "recid": 199, "fname": "JOHN", "photo": null, "latitude": 38.97845}, {"county": "ANNE ARUNDEL", "hometown": " EDGEWATER", "hasphoto": true, "countyid": 3, "longitude": -76.54996, "lname": "DEAN", "badloc": false, "recid": 200, "fname": "CARL ANDREW", "photo": null, "latitude": 38.95706}, {"county": "ANNE ARUNDEL", "hometown": " PASADENA", "hasphoto": true, "countyid": 3, "longitude": -76.57108, "lname": "DEITZ", "badloc": false, "recid": 207, "fname": "GORDON JAMES JR", "photo": null, "latitude": 39.10733}, {"county": "ANNE ARUNDEL", "hometown": " ANNAPOLIS", "hasphoto": true, "countyid": 3, "longitude": -76.49218, "lname": "DONNELL", "badloc": false, "recid": 228, "fname": "LAWRENCE HENRY", "photo": null, "latitude": 38.97845}, {"county": "ANNE ARUNDEL", "hometown": " CROWNSVILLE", "hasphoto": true, "countyid": 3, "longitude": -76.60135, "lname": "DORSEY", "badloc": false, "recid": 230, "fname": "GARDNER", "photo": null, "latitude": 39.02844}, {"county": "ANNE ARUNDEL", "hometown": " GLEN BURNIE", "hasphoto": true, "countyid": 3, "longitude": -76.62469, "lname": "DOSS", "badloc": false, "recid": 232, "fname": "LUTHER JAMES JR", "photo": null, "latitude": 39.16261}, {"county": "ANNE ARUNDEL", "hometown": " GLEN BURNIE", "hasphoto": true, "countyid": 3, "longitude": -76.62469, "lname": "FOGLER", "badloc": false, "recid": 265, "fname": "LEWIS JOHN", "photo": null, "latitude": 39.16261}, {"county": "ANNE ARUNDEL", "hometown": " SEVERN", "hasphoto": true, "countyid": 3, "longitude": -76.6983, "lname": "FOSTER", "badloc": false, "recid": 267, "fname": "WILLIAM HENRY", "photo": null, "latitude": 39.13705}, {"county": "ANNE ARUNDEL", "hometown": " ANNAPOLIS", "hasphoto": true, "countyid": 3, "longitude": -76.49218, "lname": "GAREISS", "badloc": false, "recid": 278, "fname": "KURT WILLIAM", "photo": null, "latitude": 38.97845}, {"county": "ANNE ARUNDEL", "hometown": " GAMBRILLS", "hasphoto": true, "countyid": 3, "longitude": -76.66524, "lname": "GIBIS", "badloc": false, "recid": 286, "fname": "MICHAEL E", "photo": null, "latitude": 39.06705}, {"county": "ANNE ARUNDEL", "hometown": " ANNAPOLIS", "hasphoto": true, "countyid": 3, "longitude": -76.49218, "lname": "GOODMAN", "badloc": false, "recid": 298, "fname": "EDWARD LEON", "photo": null, "latitude": 38.97845}, {"county": "ANNE ARUNDEL", "hometown": " EDGEWATER", "hasphoto": true, "countyid": 3, "longitude": -76.54996, "lname": "BALDWIN", "badloc": false, "recid": 32, "fname": "ROBERT LLOYD", "photo": null, "latitude": 38.95706}, {"county": "ANNE ARUNDEL", "hometown": " GLEN BURNIE", "hasphoto": true, "countyid": 3, "longitude": -76.62469, "lname": "HOUSE", "badloc": false, "recid": 342, "fname": "WILLIS FRANCIS", "photo": null, "latitude": 39.16261}, {"county": "ANNE ARUNDEL", "hometown": " BROOKLYN PARK", "hasphoto": true, "countyid": 3, "longitude": -76.61636, "lname": "JOHNSON", "badloc": false, "recid": 369, "fname": "DAVID RUDOLPH", "photo": null, "latitude": 39.22844}, {"county": "ANNE ARUNDEL", "hometown": " PASADENA", "hasphoto": true, "countyid": 3, "longitude": -76.57108, "lname": "LUCAS", "badloc": false, "recid": 377, "fname": "ALLEN LEE", "photo": null, "latitude": 39.10733}, {"county": "ANNE ARUNDEL", "hometown": " ANNAPOLIS", "hasphoto": true, "countyid": 3, "longitude": -76.49218, "lname": "MAC VICKAR", "badloc": false, "recid": 384, "fname": "JAMES S JR", "photo": null, "latitude": 38.97845}, {"county": "ANNE ARUNDEL", "hometown": " POINT PLEASANT", "hasphoto": true, "countyid": 3, "longitude": -76.58747, "lname": "MC CLANAHAN", "badloc": false, "recid": 410, "fname": "DONALD LEE", "photo": null, "latitude": 39.17872}, {"county": "ANNE ARUNDEL", "hometown": " GLEN BURNIE", "hasphoto": true, "countyid": 3, "longitude": -76.62469, "lname": "PERRON", "badloc": false, "recid": 441, "fname": "NORMAND PAUL", "photo": null, "latitude": 39.16261}, {"county": "ANNE ARUNDEL", "hometown": " LOTHIAN", "hasphoto": true, "countyid": 3, "longitude": -76.61135, "lname": "PINKNEY", "badloc": false, "recid": 445, "fname": "HARVEY TYRONE", "photo": null, "latitude": 38.83178}, {"county": "ANNE ARUNDEL", "hometown": " FERNDALE", "hasphoto": true, "countyid": 3, "longitude": -76.64024, "lname": "BRITT", "badloc": false, "recid": 483, "fname": "CHARLES JACKSON", "photo": null, "latitude": 39.18316}, {"county": "ANNE ARUNDEL", "hometown": " SEVERNA PARK", "hasphoto": true, "countyid": 3, "longitude": -76.54524, "lname": "BRITZ", "badloc": false, "recid": 485, "fname": "RONALD JOSEPH", "photo": null, "latitude": 39.07039}, {"county": "ANNE ARUNDEL", "hometown": " PASADENA", "hasphoto": true, "countyid": 3, "longitude": -76.57108, "lname": "BROWN", "badloc": false, "recid": 489, "fname": "JOSEPH CLINTON", "photo": null, "latitude": 39.10733}, {"county": "ANNE ARUNDEL", "hometown": " PASADENA", "hasphoto": true, "countyid": 3, "longitude": -76.57108, "lname": "BRUCE", "badloc": false, "recid": 496, "fname": "LEE RAYMOND JR", "photo": null, "latitude": 39.10733}, {"county": "ANNE ARUNDEL", "hometown": " GLEN BURNIE", "hasphoto": true, "countyid": 3, "longitude": -76.62469, "lname": "DAVIDSON", "badloc": false, "recid": 509, "fname": "ROBERT GRIFFIN", "photo": null, "latitude": 39.16261}, {"county": "ANNE ARUNDEL", "hometown": " LOTHIAN", "hasphoto": true, "countyid": 3, "longitude": -76.61135, "lname": "DAVIS", "badloc": false, "recid": 514, "fname": "LAWRENCE ARNOLD", "photo": null, "latitude": 38.83178}, {"county": "ANNE ARUNDEL", "hometown": " SEVERNA PARK", "hasphoto": true, "countyid": 3, "longitude": -76.54524, "lname": "BEDSOLE", "badloc": false, "recid": 52, "fname": "CHARLES ARTHUR", "photo": null, "latitude": 39.07039}, {"county": "ANNE ARUNDEL", "hometown": " GALESVILLE", "hasphoto": true, "countyid": 3, "longitude": -76.54357, "lname": "HARDESTY", "badloc": false, "recid": 532, "fname": "MICHAEL OWEN", "photo": null, "latitude": 38.84317}, {"county": "ANNE ARUNDEL", "hometown": " PASADENA", "hasphoto": true, "countyid": 3, "longitude": -76.57108, "lname": "HARP", "badloc": false, "recid": 537, "fname": "MICHAEL LEE", "photo": null, "latitude": 39.10733}, {"county": "ANNE ARUNDEL", "hometown": " ANNAPOLIS", "hasphoto": true, "countyid": 3, "longitude": -76.49218, "lname": "HOPKINS", "badloc": false, "recid": 562, "fname": "DANNY LEE", "photo": null, "latitude": 38.97845}, {"county": "ANNE ARUNDEL", "hometown": " PASADENA", "hasphoto": true, "countyid": 3, "longitude": -76.57108, "lname": "JONES", "badloc": false, "recid": 568, "fname": "DONALD ERNEST", "photo": null, "latitude": 39.10733}, {"county": "ANNE ARUNDEL", "hometown": " MAYO", "hasphoto": true, "countyid": 3, "longitude": -76.5119, "lname": "LAMM", "badloc": false, "recid": 626, "fname": "JONATHAN LEE", "photo": null, "latitude": 38.88761}, {"county": "ANNE ARUNDEL", "hometown": " ANNAPOLIS", "hasphoto": true, "countyid": 3, "longitude": -76.49218, "lname": "LAS HERMES", "badloc": false, "recid": 630, "fname": "PHILIPPE LUC", "photo": null, "latitude": 38.97845}, {"county": "ANNE ARUNDEL", "hometown": " ANNAPOLIS", "hasphoto": true, "countyid": 3, "longitude": -76.49218, "lname": "LEONARD", "badloc": false, "recid": 637, "fname": "PAUL AUSTIN", "photo": null, "latitude": 38.97845}, {"county": "ANNE ARUNDEL", "hometown": " HARWOOD", "hasphoto": true, "countyid": 3, "longitude": -76.61996, "lname": "MOULDEN", "badloc": false, "recid": 685, "fname": "JOHN", "photo": null, "latitude": 38.86539}, {"county": "ANNE ARUNDEL", "hometown": " ANNAPOLIS", "hasphoto": true, "countyid": 3, "longitude": -76.49218, "lname": "MUSTAIN", "badloc": false, "recid": 694, "fname": "JERRY WAYNE", "photo": null, "latitude": 38.97845}, {"county": "ANNE ARUNDEL", "hometown": " SEVERNA PARK", "hasphoto": true, "countyid": 3, "longitude": -76.54524, "lname": "NITSCHE", "badloc": false, "recid": 705, "fname": "RICHARD EDMUND JR", "photo": null, "latitude": 39.07039}, {"county": "ANNE ARUNDEL", "hometown": " ANNAPOLIS", "hasphoto": true, "countyid": 3, "longitude": -76.49218, "lname": "PASQUALUCCI", "badloc": false, "recid": 730, "fname": "EMIDIO", "photo": null, "latitude": 38.97845}, {"county": "ANNE ARUNDEL", "hometown": " ARNOLD", "hasphoto": true, "countyid": 3, "longitude": -76.50274, "lname": "QUAITE", "badloc": false, "recid": 736, "fname": "DANNY JOE", "photo": null, "latitude": 39.03206}, {"county": "ANNE ARUNDEL", "hometown": " GLEN BURNIE", "hasphoto": true, "countyid": 3, "longitude": -76.62469, "lname": "STOCKS", "badloc": false, "recid": 754, "fname": "WILLIAM REED", "photo": null, "latitude": 39.16261}, {"county": "ANNE ARUNDEL", "hometown": " GLEN BURNIE", "hasphoto": true, "countyid": 3, "longitude": -76.62469, "lname": "STONE", "badloc": false, "recid": 756, "fname": "WILLIAM MARVIN JR", "photo": null, "latitude": 39.16261}, {"county": "ANNE ARUNDEL", "hometown": " PASADENA", "hasphoto": true, "countyid": 3, "longitude": -76.57108, "lname": "STONESIFER", "badloc": false, "recid": 758, "fname": "HARRY NELSON", "photo": null, "latitude": 39.10733}, {"county": "ANNE ARUNDEL", "hometown": " PASADENA", "hasphoto": true, "countyid": 3, "longitude": -76.57108, "lname": "ROGERS", "badloc": false, "recid": 797, "fname": "BOBBY DALE", "photo": null, "latitude": 39.10733}, {"county": "ANNE ARUNDEL", "hometown": " FORT MEADE", "hasphoto": true, "countyid": 3, "longitude": -76.74323, "lname": "SAPP", "badloc": false, "recid": 820, "fname": "ALFRED GEORGE SR", "photo": null, "latitude": 39.10815}, {"county": "ANNE ARUNDEL", "hometown": " GLEN BURNIE", "hasphoto": true, "countyid": 3, "longitude": -76.62469, "lname": "SAXON", "badloc": false, "recid": 827, "fname": "JAMES RUSSELL", "photo": null, "latitude": 39.16261}, {"county": "ANNE ARUNDEL", "hometown": " SEVERN", "hasphoto": true, "countyid": 3, "longitude": -76.6983, "lname": "SEWELL", "badloc": false, "recid": 847, "fname": "JOHN FRANCIS JR", "photo": null, "latitude": 39.13705}, {"county": "ANNE ARUNDEL", "hometown": " PASADENA", "hasphoto": true, "countyid": 3, "longitude": -76.57108, "lname": "BOARDMAN", "badloc": false, "recid": 85, "fname": "EDWARD ALLEN", "photo": null, "latitude": 39.10733}, {"county": "ANNE ARUNDEL", "hometown": " LINTHICUM HEIGHTS", "hasphoto": true, "countyid": 3, "longitude": -76.66219, "lname": "SHAY", "badloc": false, "recid": 852, "fname": "DONALD EMERSON JR", "photo": null, "latitude": 39.20344}, {"county": "ANNE ARUNDEL", "hometown": " GLEN BURNIE", "hasphoto": true, "countyid": 3, "longitude": -76.62469, "lname": "SHORTER", "badloc": false, "recid": 860, "fname": "JOHN JOSEPH", "photo": null, "latitude": 39.16261}, {"county": "ANNE ARUNDEL", "hometown": " FORT MEADE", "hasphoto": true, "countyid": 3, "longitude": -76.74323, "lname": "SIGLER", "badloc": false, "recid": 862, "fname": "ADRIAN EDWARD", "photo": null, "latitude": 39.10815}, {"county": "ANNE ARUNDEL", "hometown": " CROWNSVILLE", "hasphoto": true, "countyid": 3, "longitude": -76.60135, "lname": "SMITH", "badloc": false, "recid": 886, "fname": "RUSSELL FRANCIS", "photo": null, "latitude": 39.02844}, {"county": "ANNE ARUNDEL", "hometown": " GAMBRILLS", "hasphoto": true, "countyid": 3, "longitude": -76.66524, "lname": "SNODGRASS", "badloc": false, "recid": 892, "fname": "WILLIAM LEONARD", "photo": null, "latitude": 39.06705}, {"county": "ANNE ARUNDEL", "hometown": " PASADENA", "hasphoto": true, "countyid": 3, "longitude": -76.57108, "lname": "BOLAN", "badloc": false, "recid": 90, "fname": "ROBERT LOUIS", "photo": null, "latitude": 39.10733}, {"county": "ANNE ARUNDEL", "hometown": " GLEN BURNIE", "hasphoto": true, "countyid": 3, "longitude": -76.62469, "lname": "TREMBLAY", "badloc": false, "recid": 944, "fname": "JAMES ALLAN", "photo": null, "latitude": 39.16261}, {"county": "ANNE ARUNDEL", "hometown": " ANNAPOLIS", "hasphoto": true, "countyid": 3, "longitude": -76.49218, "lname": "TUCKER", "badloc": false, "recid": 945, "fname": "WILLIAM EUGENE JR", "photo": null, "latitude": 38.97845}, {"county": "ANNE ARUNDEL", "hometown": " ANNAPOLIS", "hasphoto": true, "countyid": 3, "longitude": -76.49218, "lname": "WARD", "badloc": false, "recid": 967, "fname": "ALEXANDER KEARNEY", "photo": null, "latitude": 38.97845}, {"county": "ANNE ARUNDEL", "hometown": " ANNAPOLIS", "hasphoto": true, "countyid": 3, "longitude": -76.49218, "lname": "WARK", "badloc": false, "recid": 972, "fname": "CARLISLE OGDEN JR", "photo": null, "latitude": 38.97845}, {"county": "ANNE ARUNDEL", "hometown": " FORT MEADE", "hasphoto": true, "countyid": 3, "longitude": -76.74323, "lname": "WATKINS", "badloc": false, "recid": 977, "fname": "ROBERT JAMES JR", "photo": null, "latitude": 39.10815}, {"county": "ANNE ARUNDEL", "hometown": " ANNAPOLIS", "hasphoto": true, "countyid": 3, "longitude": -76.49218, "lname": "WAXMAN", "badloc": false, "recid": 981, "fname": "TEDDY", "photo": null, "latitude": 38.97845}, {"county": "ANNE ARUNDEL", "hometown": " EDGEWATER", "hasphoto": true, "countyid": 3, "longitude": -76.54996, "lname": "WEST", "badloc": false, "recid": 988, "fname": "DALLAS ARNOLD", "photo": null, "latitude": 38.95706}], "countyid": 3}, {"casualties": [{"county": "CALVERT", "hometown": " SUNDERLAND", "hasphoto": true, "countyid": 9, "longitude": -76.59801, "lname": "EMERSON", "badloc": false, "recid": 251, "fname": "STEWART CHARLES", "photo": null, "latitude": 38.67123}, {"county": "CALVERT", "hometown": " PRINCE FREDERICK", "hasphoto": true, "countyid": 9, "longitude": -76.5844, "lname": "KING", "badloc": false, "recid": 599, "fname": "ROBERT LEE", "photo": null, "latitude": 38.5404}, {"county": "CALVERT", "hometown": " PRINCE FREDERICK", "hasphoto": true, "countyid": 9, "longitude": -76.5844, "lname": "PARKER", "badloc": false, "recid": 726, "fname": "JAMES ALLEN", "photo": null, "latitude": 38.5404}, {"county": "CALVERT", "hometown": " PRINCE FREDERICK", "hasphoto": true, "countyid": 9, "longitude": -76.5844, "lname": "REYNOLDS", "badloc": false, "recid": 778, "fname": "SHERWOOD", "photo": null, "latitude": 38.5404}], "countyid": 9}, {"casualties": [{"county": "CAROLINE", "hometown": " DENTON", "hasphoto": true, "countyid": 11, "longitude": -75.82716, "lname": "BURROWS", "badloc": false, "recid": 100, "fname": "ROBERTS PATON", "photo": null, "latitude": 38.88456}, {"county": "CAROLINE", "hometown": " RIDGELY", "hasphoto": true, "countyid": 11, "longitude": -75.88438, "lname": "HOUSE", "badloc": false, "recid": 341, "fname": "WILLIAM HANDSOME", "photo": null, "latitude": 38.94789}, {"county": "CAROLINE", "hometown": "GOLDSBORO", "hasphoto": true, "countyid": 11, "longitude": -75.7866, "lname": "POTTER", "badloc": false, "recid": 451, "fname": "ALBERT RAYMOND", "photo": null, "latitude": 39.034}, {"county": "CAROLINE", "hometown": " FEDERALSBURG", "hasphoto": true, "countyid": 11, "longitude": -75.77216, "lname": "LAWRENCE", "badloc": false, "recid": 631, "fname": "GORDON LEE", "photo": null, "latitude": 38.69428}, {"county": "CAROLINE", "hometown": " DENTON", "hasphoto": true, "countyid": 11, "longitude": -75.82716, "lname": "LEWIS", "badloc": false, "recid": 640, "fname": "ANDREW LEON", "photo": null, "latitude": 38.88456}], "countyid": 11}, {"casualties": [{"county": "CARROLL", "hometown": " MANCHESTER", "hasphoto": true, "countyid": 13, "longitude": -76.88498, "lname": "ZUMBRUN", "badloc": false, "recid": 1046, "fname": "JAMES HENRY", "photo": null, "latitude": 39.66121}, {"county": "CARROLL", "hometown": " WESTMINSTER", "hasphoto": true, "countyid": 13, "longitude": -76.99581, "lname": "BYERS", "badloc": false, "recid": 105, "fname": "JAMES NORMAN", "photo": null, "latitude": 39.57538}, {"county": "CARROLL", "hometown": " WESTMINSTER", "hasphoto": true, "countyid": 13, "longitude": -76.99581, "lname": "EGOLF", "badloc": false, "recid": 248, "fname": "CARL M", "photo": null, "latitude": 39.57538}, {"county": "CARROLL", "hometown": " MARRIOTTSVILLE", "hasphoto": true, "countyid": 13, "longitude": -76.89942, "lname": "FEEZER", "badloc": false, "recid": 259, "fname": "JOHN HARVEY", "photo": null, "latitude": 39.3501}, {"county": "CARROLL", "hometown": " HAMPSTEAD", "hasphoto": true, "countyid": 13, "longitude": -76.84998, "lname": "GROOMES", "badloc": false, "recid": 318, "fname": "MURIEL STANLEY", "photo": null, "latitude": 39.60483}, {"county": "CARROLL", "hometown": " WESTMINSTER", "hasphoto": true, "countyid": 13, "longitude": -76.99581, "lname": "MAGSAMEN", "badloc": false, "recid": 389, "fname": "FREDERICK JOHN", "photo": null, "latitude": 39.57538}, {"county": "CARROLL", "hometown": " WESTMINSTER", "hasphoto": true, "countyid": 13, "longitude": -76.99581, "lname": "FLANAGAN", "badloc": false, "recid": 524, "fname": "SHERMAN EDWARD JR", "photo": null, "latitude": 39.57538}, {"county": "CARROLL", "hometown": " AVONDALE", "hasphoto": true, "countyid": 13, "longitude": -77.03082, "lname": "BELCHER", "badloc": false, "recid": 54, "fname": "STEPHEN EDWIN", "photo": null, "latitude": 39.55927}, {"county": "CARROLL", "hometown": " MILLERS", "hasphoto": true, "countyid": 13, "longitude": -76.85109, "lname": "KIDD", "badloc": false, "recid": 592, "fname": "MICHAEL LOU", "photo": null, "latitude": 39.67121}, {"county": "CARROLL", "hometown": " UNION BRIDGE", "hasphoto": true, "countyid": 13, "longitude": -77.17693, "lname": "MILBERRY", "badloc": false, "recid": 663, "fname": "RUSSELL E", "photo": null, "latitude": 39.56899}, {"county": "CARROLL", "hometown": " WESTMINSTER", "hasphoto": true, "countyid": 13, "longitude": -76.99581, "lname": "MILLER", "badloc": false, "recid": 664, "fname": "CHRISTOPHER J J", "photo": null, "latitude": 39.57538}, {"county": "CARROLL", "hometown": " WESTMINSTER", "hasphoto": true, "countyid": 13, "longitude": -76.99581, "lname": "ORETO", "badloc": false, "recid": 717, "fname": "JOSEPH ANTHONY", "photo": null, "latitude": 39.57538}, {"county": "CARROLL", "hometown": " HAMPSTEAD", "hasphoto": true, "countyid": 13, "longitude": -76.84998, "lname": "STEGER", "badloc": false, "recid": 909, "fname": "DAVID NAYLOR", "photo": null, "latitude": 39.60483}, {"county": "CARROLL", "hometown": " SYKESVILLE", "hasphoto": true, "countyid": 13, "longitude": -76.96776, "lname": "UNDERWOOD", "badloc": false, "recid": 953, "fname": "FRANKLIN W JR", "photo": null, "latitude": 39.37371}], "countyid": 13}, {"casualties": [{"county": "CECIL", "hometown": " PERRYVILLE", "hasphoto": true, "countyid": 15, "longitude": -76.07134, "lname": "CLAYTON", "badloc": false, "recid": 147, "fname": "DAVID NELSON", "photo": null, "latitude": 39.56011}, {"county": "CECIL", "hometown": " PORT DEPOSIT", "hasphoto": true, "countyid": 15, "longitude": -76.11523, "lname": "COPENHAVER", "badloc": false, "recid": 163, "fname": "GREGORY SCOTT", "photo": null, "latitude": 39.60483}, {"county": "CECIL", "hometown": " ELKTON", "hasphoto": true, "countyid": 15, "longitude": -75.83327, "lname": "FRENG", "badloc": false, "recid": 272, "fname": "MARSHALL FRANKLIN", "photo": null, "latitude": 39.60678}, {"county": "CECIL", "hometown": " ELKTON", "hasphoto": true, "countyid": 15, "longitude": -75.83327, "lname": "MC ALLISTER", "badloc": false, "recid": 406, "fname": "DONALD C JR", "photo": null, "latitude": 39.60678}, {"county": "CECIL", "hometown": " RISING SUN", "hasphoto": true, "countyid": 15, "longitude": -77.20387, "lname": "REYNOLDS", "badloc": true, "recid": 777, "fname": "LEVI RAY", "photo": null, "latitude": 39.67732}, {"county": "CECIL", "hometown": " ELKTON", "hasphoto": true, "countyid": 15, "longitude": -75.83327, "lname": "ROBINSON", "badloc": false, "recid": 789, "fname": "GEORGE", "photo": null, "latitude": 39.60678}, {"county": "CECIL", "hometown": " RISING SUN", "hasphoto": true, "countyid": 15, "longitude": -77.20387, "lname": "ROLFE", "badloc": true, "recid": 799, "fname": "MICHAEL DUANE", "photo": null, "latitude": 39.67732}, {"county": "CECIL", "hometown": " ELKTON", "hasphoto": true, "countyid": 15, "longitude": -75.83327, "lname": "RUFF", "badloc": false, "recid": 810, "fname": "THOMAS VALENTINE JR", "photo": null, "latitude": 39.60678}, {"county": "CECIL", "hometown": " PORT DEPOSIT", "hasphoto": true, "countyid": 15, "longitude": -76.11523, "lname": "TAPP", "badloc": false, "recid": 914, "fname": "MARION NEAL", "photo": null, "latitude": 39.60483}], "countyid": 15}, {"casualties": [{"county": "CHARLES", "hometown": " LA PLATA", "hasphoto": true, "countyid": 17, "longitude": -76.97525, "lname": "WILLS", "badloc": false, "recid": 1006, "fname": "FRANCIS DESALES", "photo": null, "latitude": 38.52929}, {"county": "CHARLES", "hometown": " LA PLATA", "hasphoto": true, "countyid": 17, "longitude": -76.97525, "lname": "WINKLER", "badloc": false, "recid": 1017, "fname": "DAVID DE SALES", "photo": null, "latitude": 38.52929}, {"county": "CHARLES", "hometown": " INDIAN HEAD", "hasphoto": true, "countyid": 17, "longitude": -77.1622, "lname": "WOODLAND", "badloc": false, "recid": 1027, "fname": "THOMAS S JR", "photo": null, "latitude": 38.60012}, {"county": "CHARLES", "hometown": " BENEDICT", "hasphoto": true, "countyid": 17, "longitude": -76.67968, "lname": "ANDREWS", "badloc": false, "recid": 12, "fname": "WILLIAM ALBERT", "photo": null, "latitude": 38.50929}, {"county": "CHARLES", "hometown": " BRYANS ROAD", "hasphoto": true, "countyid": 17, "longitude": -77.07303, "lname": "CARROLL", "badloc": false, "recid": 123, "fname": "JOSEPH KENNETH", "photo": null, "latitude": 38.62706}, {"county": "CHARLES", "hometown": " WHITE PLAINS", "hasphoto": true, "countyid": 17, "longitude": -76.94025, "lname": "DE MARR", "badloc": false, "recid": 198, "fname": "JOHN CHARLES J", "photo": null, "latitude": 38.5904}, {"county": "CHARLES", "hometown": " INDIAN HEAD", "hasphoto": true, "countyid": 17, "longitude": -77.1622, "lname": "BAKER", "badloc": false, "recid": 30, "fname": "RONALD", "photo": null, "latitude": 38.60012}, {"county": "CHARLES", "hometown": " HUGHESVILLE", "hasphoto": true, "countyid": 17, "longitude": -76.78386, "lname": "GREENFIELD", "badloc": false, "recid": 314, "fname": "JOHN ARTHUR", "photo": null, "latitude": 38.53262}, {"county": "CHARLES", "hometown": " NANJEMOY", "hasphoto": true, "countyid": 17, "longitude": -77.21692, "lname": "GUTRICK", "badloc": false, "recid": 320, "fname": "DONALD MAURICE", "photo": null, "latitude": 38.45484}, {"county": "CHARLES", "hometown": " BRYANS ROAD", "hasphoto": true, "countyid": 17, "longitude": -77.07303, "lname": "HAYES", "badloc": false, "recid": 333, "fname": "RICHARD EDWARD", "photo": null, "latitude": 38.62706}, {"county": "CHARLES", "hometown": " INDIAN HEAD", "hasphoto": true, "countyid": 17, "longitude": -77.1622, "lname": "PAINTER", "badloc": false, "recid": 725, "fname": "ROBERT ALBERT JR", "photo": null, "latitude": 38.60012}, {"county": "CHARLES", "hometown": " WALDORF", "hasphoto": true, "countyid": 17, "longitude": -76.93914, "lname": "ROLLINS", "badloc": false, "recid": 800, "fname": "WADE HAMPTON", "photo": null, "latitude": 38.62456}, {"county": "CHARLES", "hometown": " LA PLATA", "hasphoto": true, "countyid": 17, "longitude": -76.97525, "lname": "SHEGOGUE", "badloc": false, "recid": 853, "fname": "ROBERT STEPHEN", "photo": null, "latitude": 38.52929}, {"county": "CHARLES", "hometown": "WALDORF", "hasphoto": true, "countyid": 17, "longitude": -76.93914, "lname": "SMITH", "badloc": false, "recid": 877, "fname": "CECIL RAY JR", "photo": null, "latitude": 38.62456}, {"county": "CHARLES", "hometown": " INDIAN HEAD", "hasphoto": true, "countyid": 17, "longitude": -77.1622, "lname": "TAYLOR", "badloc": false, "recid": 919, "fname": "RAYMOND NOVELL", "photo": null, "latitude": 38.60012}, {"county": "CHARLES", "hometown": " LA PLATA", "hasphoto": true, "countyid": 17, "longitude": -76.97525, "lname": "BOWLING", "badloc": false, "recid": 96, "fname": "DAVID BICKNEL", "photo": null, "latitude": 38.52929}], "countyid": 17}, {"casualties": [{"county": "DORCHESTER", "hometown": "CAMBRIDGE", "hasphoto": true, "countyid": 19, "longitude": -76.07883, "lname": "DAYTON", "badloc": false, "recid": 197, "fname": "WILLIAM CLARENCE", "photo": null, "latitude": 38.56317}, {"county": "DORCHESTER", "hometown": " HURLOCK", "hasphoto": true, "countyid": 19, "longitude": -75.85438, "lname": "DIGENNO", "badloc": false, "recid": 219, "fname": "MICHAEL", "photo": null, "latitude": 38.62428}, {"county": "DORCHESTER", "hometown": " TAYLORS ISLAND", "hasphoto": true, "countyid": 19, "longitude": -76.29911, "lname": "JENKINS", "badloc": false, "recid": 363, "fname": "CECIL RAYMOND", "photo": null, "latitude": 38.46901}, {"county": "DORCHESTER", "hometown": " CAMBRIDGE", "hasphoto": true, "countyid": 19, "longitude": -76.07883, "lname": "MACK", "badloc": false, "recid": 386, "fname": "EARL", "photo": null, "latitude": 38.56317}, {"county": "DORCHESTER", "hometown": " CAMBRIDGE", "hasphoto": true, "countyid": 19, "longitude": -76.07883, "lname": "SUDLER", "badloc": false, "recid": 761, "fname": "DERRICK", "photo": null, "latitude": 38.56317}], "countyid": 19}, {"casualties": [{"county": "FREDERICK", "hometown": " FREDERICK", "hasphoto": true, "countyid": 21, "longitude": -77.41054, "lname": "WILLARD", "badloc": false, "recid": 1000, "fname": "ROBERT LEROY", "photo": null, "latitude": 39.41427}, {"county": "FREDERICK", "hometown": " FREDERICK", "hasphoto": true, "countyid": 21, "longitude": -77.41054, "lname": "ZIMMERMAN", "badloc": false, "recid": 1045, "fname": "WILLIAM E JR", "photo": null, "latitude": 39.41427}, {"county": "FREDERICK", "hometown": " FREDERICK", "hasphoto": true, "countyid": 21, "longitude": -77.41054, "lname": "CANIFORD", "badloc": false, "recid": 117, "fname": "JAMES KENNETH", "photo": null, "latitude": 39.41427}, {"county": "FREDERICK", "hometown": " THURMONT", "hasphoto": true, "countyid": 21, "longitude": -77.41082, "lname": "CARBAUGH", "badloc": false, "recid": 121, "fname": "WOODROW FRANKLIN", "photo": null, "latitude": 39.62371}, {"county": "FREDERICK", "hometown": " FREDERICK", "hasphoto": true, "countyid": 21, "longitude": -77.41054, "lname": "COOK", "badloc": false, "recid": 159, "fname": "WILSON LEE", "photo": null, "latitude": 39.41427}, {"county": "FREDERICK", "hometown": " FREDERICK", "hasphoto": true, "countyid": 21, "longitude": -77.41054, "lname": "COSGROVE", "badloc": false, "recid": 165, "fname": "GARY WAYNE", "photo": null, "latitude": 39.41427}, {"county": "FREDERICK", "hometown": " FREDERICK", "hasphoto": true, "countyid": 21, "longitude": -77.41054, "lname": "ATCHISON", "badloc": false, "recid": 20, "fname": "JAMES MITCHELL", "photo": null, "latitude": 39.41427}, {"county": "FREDERICK", "hometown": " FREDERICK", "hasphoto": true, "countyid": 21, "longitude": -77.41054, "lname": "GRASER", "badloc": false, "recid": 306, "fname": "JOHN WILLIAM", "photo": null, "latitude": 39.41427}, {"county": "FREDERICK", "hometown": " THURMONT", "hasphoto": true, "countyid": 21, "longitude": -77.41082, "lname": "PITTINGER", "badloc": false, "recid": 446, "fname": "CHARLES ROBERT", "photo": null, "latitude": 39.62371}, {"county": "FREDERICK", "hometown": " FREDERICK", "hasphoto": true, "countyid": 21, "longitude": -77.41054, "lname": "PLUNKARD", "badloc": false, "recid": 447, "fname": "JOHN FRANCIS", "photo": null, "latitude": 39.41427}, {"county": "FREDERICK", "hometown": " FREDERICK", "hasphoto": true, "countyid": 21, "longitude": -77.41054, "lname": "BRANDENBURG", "badloc": false, "recid": 473, "fname": "CHARLES FRANK", "photo": null, "latitude": 39.41427}, {"county": "FREDERICK", "hometown": " WALKERSVILLE", "hasphoto": true, "countyid": 21, "longitude": -77.35193, "lname": "BRASHEARS", "badloc": false, "recid": 476, "fname": "LARRY FRANKLIN", "photo": null, "latitude": 39.48621}, {"county": "FREDERICK", "hometown": " FREDERICK", "hasphoto": true, "countyid": 21, "longitude": -77.41054, "lname": "BREWER", "badloc": false, "recid": 479, "fname": "MICHAEL LEON", "photo": null, "latitude": 39.41427}, {"county": "FREDERICK", "hometown": " FREDERICK", "hasphoto": true, "countyid": 21, "longitude": -77.41054, "lname": "BRITTAIN", "badloc": false, "recid": 484, "fname": "DANIEL SPENSER", "photo": null, "latitude": 39.41427}, {"county": "FREDERICK", "hometown": " BRUNSWICK", "hasphoto": true, "countyid": 21, "longitude": -77.62777, "lname": "HARBERT", "badloc": false, "recid": 531, "fname": "CHARLES WALTER", "photo": null, "latitude": 39.31427}, {"county": "FREDERICK", "hometown": " MYERSVILLE", "hasphoto": true, "countyid": 21, "longitude": -77.56638, "lname": "HIMES", "badloc": false, "recid": 547, "fname": "CLYDE STEVEN", "photo": null, "latitude": 39.5051}, {"county": "FREDERICK", "hometown": " MOUNT AIRY", "hasphoto": true, "countyid": 21, "longitude": -77.1547, "lname": "JUSTICE", "badloc": false, "recid": 580, "fname": "EVERETT EUGENE JR", "photo": null, "latitude": 39.37621}, {"county": "FREDERICK", "hometown": " MOUNT AIRY", "hasphoto": true, "countyid": 21, "longitude": -77.1547, "lname": "KENNY", "badloc": false, "recid": 588, "fname": "RONALD MICHAEL", "photo": null, "latitude": 39.37621}, {"county": "FREDERICK", "hometown": " FREDERICK", "hasphoto": true, "countyid": 21, "longitude": -77.41054, "lname": "KLINE", "badloc": false, "recid": 605, "fname": "HAROLD FRANKLIN", "photo": null, "latitude": 39.41427}, {"county": "FREDERICK", "hometown": " FREDERICK", "hasphoto": true, "countyid": 21, "longitude": -77.41054, "lname": "KRANTZ", "badloc": false, "recid": 618, "fname": "FRANKLIN JOSHUA JR", "photo": null, "latitude": 39.41427}, {"county": "FREDERICK", "hometown": " WALKERSVILLE", "hasphoto": true, "countyid": 21, "longitude": -77.35193, "lname": "KROM", "badloc": false, "recid": 620, "fname": "KENNETH LIONEL", "photo": null, "latitude": 39.48621}, {"county": "FREDERICK", "hometown": " IJAMSVILLE", "hasphoto": true, "countyid": 21, "longitude": -77.32276, "lname": "LERNER", "badloc": false, "recid": 638, "fname": "ROBERT HENRY", "photo": null, "latitude": 39.36038}, {"county": "FREDERICK", "hometown": " WOODSBORO", "hasphoto": true, "countyid": 21, "longitude": -77.31471, "lname": "MEEHAN", "badloc": false, "recid": 656, "fname": "RICHARD WOODS", "photo": null, "latitude": 39.53316}, {"county": "FREDERICK", "hometown": " MOUNT AIRY", "hasphoto": true, "countyid": 21, "longitude": -77.1547, "lname": "MULKEY", "badloc": false, "recid": 690, "fname": "HERBERT EUGENE JR", "photo": null, "latitude": 39.37621}, {"county": "FREDERICK", "hometown": " FREDERICK", "hasphoto": true, "countyid": 21, "longitude": -77.41054, "lname": "SMITH", "badloc": false, "recid": 885, "fname": "ROBERT EARL JR", "photo": null, "latitude": 39.41427}, {"county": "FREDERICK", "hometown": " MOUNT AIRY", "hasphoto": true, "countyid": 21, "longitude": -77.1547, "lname": "AMOSS", "badloc": false, "recid": 9, "fname": "RUSSELL MONROE", "photo": null, "latitude": 39.37621}, {"county": "FREDERICK", "hometown": " FREDERICK", "hasphoto": true, "countyid": 21, "longitude": -77.41054, "lname": "SROKA", "badloc": false, "recid": 903, "fname": "STEPHEN EUGENE", "photo": null, "latitude": 39.41427}], "countyid": 21}, {"casualties": [{"county": "GARRETT", "hometown": "FRIENDSVILLE", "hasphoto": true, "countyid": 23, "longitude": -79.40532, "lname": "GARLICK", "badloc": false, "recid": 279, "fname": "RODGER LYNN", "photo": null, "latitude": 39.66369}, {"county": "GARRETT", "hometown": " FRIENDSVILLE", "hasphoto": true, "countyid": 23, "longitude": -79.40532, "lname": "FIKE", "badloc": false, "recid": 519, "fname": "ROSS FRANCIS", "photo": null, "latitude": 39.66369}, {"county": "GARRETT", "hometown": " FRIENDSVILLE", "hasphoto": true, "countyid": 23, "longitude": -79.40532, "lname": "FIKE", "badloc": false, "recid": 520, "fname": "THOMAS EUGENE", "photo": null, "latitude": 39.66369}, {"county": "GARRETT", "hometown": " FRIENDSVILLE", "hasphoto": true, "countyid": 23, "longitude": -79.40532, "lname": "HOOK", "badloc": false, "recid": 559, "fname": "CHARLES WAYNE", "photo": null, "latitude": 39.66369}, {"county": "GARRETT", "hometown": " FRIENDSVILLE", "hasphoto": true, "countyid": 23, "longitude": -79.40532, "lname": "NICKLOW", "badloc": false, "recid": 702, "fname": "DANNY EUGENE", "photo": null, "latitude": 39.66369}, {"county": "GARRETT", "hometown": " SWANTON", "hasphoto": true, "countyid": 23, "longitude": -79.23087, "lname": "RHODES", "badloc": false, "recid": 779, "fname": "CURTIS ALLEN", "photo": null, "latitude": 39.45898}, {"county": "GARRETT", "hometown": " OAKLAND", "hasphoto": true, "countyid": 23, "longitude": -76.54385, "lname": "SIRBAUGH", "badloc": true, "recid": 866, "fname": "THOMAS EDWARD", "photo": null, "latitude": 38.81428}, {"county": "GARRETT", "hometown": " DEER PARK", "hasphoto": true, "countyid": 23, "longitude": -76.82998, "lname": "TASKER", "badloc": true, "recid": 915, "fname": "KENNETH EARL", "photo": null, "latitude": 39.39899}], "countyid": 23}, {"casualties": [{"county": "HARFORD", "hometown": " BEL AIR", "hasphoto": true, "countyid": 25, "longitude": -76.34829, "lname": "WILSON", "badloc": false, "recid": 1012, "fname": "MONTY NORRIS", "photo": null, "latitude": 39.53594}, {"county": "HARFORD", "hometown": " STREET", "hasphoto": true, "countyid": 25, "longitude": -76.37941, "lname": "WISE", "badloc": false, "recid": 1021, "fname": "EDWARD JOSEPH", "photo": null, "latitude": 39.66899}, {"county": "HARFORD", "hometown": " ABERDEEN", "hasphoto": true, "countyid": 25, "longitude": -76.16412, "lname": "CALL", "badloc": false, "recid": 109, "fname": "GERALD LEE", "photo": null, "latitude": 39.50956}, {"county": "HARFORD", "hometown": " BEL AIR", "hasphoto": true, "countyid": 25, "longitude": -76.34829, "lname": "COOPER", "badloc": false, "recid": 161, "fname": "OSCAR EDMOND", "photo": null, "latitude": 39.53594}, {"county": "HARFORD", "hometown": " JOPPA", "hasphoto": true, "countyid": 25, "longitude": -76.35774, "lname": "CORBIN", "badloc": false, "recid": 164, "fname": "WILLIAM JENNINGS", "photo": null, "latitude": 39.43372}, {"county": "HARFORD", "hometown": " CHURCHVILLE", "hasphoto": true, "countyid": 25, "longitude": -76.24551, "lname": "DEMBY", "badloc": false, "recid": 209, "fname": "GEORGE ALLEN", "photo": null, "latitude": 39.56122}, {"county": "HARFORD", "hometown": "NORRISVILLE", "hasphoto": true, "countyid": 25, "longitude": -76.53469, "lname": "DEVOE", "badloc": false, "recid": 212, "fname": "ROBERT L", "photo": null, "latitude": 39.70483}, {"county": "HARFORD", "hometown": " HAVRE DE GRACE", "hasphoto": true, "countyid": 25, "longitude": -76.09162, "lname": "GILBERT", "badloc": false, "recid": 288, "fname": "FRANKLIN BRADLEY", "photo": null, "latitude": 39.54928}, {"county": "HARFORD", "hometown": " DARLINGTON", "hasphoto": true, "countyid": 25, "longitude": -76.20273, "lname": "HUBARD", "badloc": false, "recid": 343, "fname": "THOMAS CARR JEFFER", "photo": null, "latitude": 39.63927}, {"county": "HARFORD", "hometown": " EDGEWOOD", "hasphoto": true, "countyid": 25, "longitude": -77.47415, "lname": "JAMACK", "badloc": true, "recid": 359, "fname": "CHARLES ANTHONY", "photo": null, "latitude": 39.45955}, {"county": "HARFORD", "hometown": " HAVRE DE GRACE", "hasphoto": true, "countyid": 25, "longitude": -76.09162, "lname": "MC CREARY", "badloc": false, "recid": 412, "fname": "STANLEY EUGENE", "photo": null, "latitude": 39.54928}, {"county": "HARFORD", "hometown": " ABERDEEN", "hasphoto": true, "countyid": 25, "longitude": -76.16412, "lname": "PRITT", "badloc": false, "recid": 462, "fname": "THOMAS EUGENE", "photo": null, "latitude": 39.50956}, {"county": "HARFORD", "hometown": " HAVRE DE GRACE", "hasphoto": true, "countyid": 25, "longitude": -76.09162, "lname": "HITCHCOCK", "badloc": false, "recid": 549, "fname": "RAYMOND R JR", "photo": null, "latitude": 39.54928}, {"county": "HARFORD", "hometown": " BEL AIR", "hasphoto": true, "countyid": 25, "longitude": -76.34829, "lname": "JOHNSON", "badloc": false, "recid": 567, "fname": "WILLIAM FRANK", "photo": null, "latitude": 39.53594}, {"county": "HARFORD", "hometown": " WHITE HALL", "hasphoto": true, "countyid": 25, "longitude": -75.83827, "lname": "BENKE", "badloc": false, "recid": 58, "fname": "RONALD JOHN III", "photo": null, "latitude": 39.58761}, {"county": "HARFORD", "hometown": " BELCAMP", "hasphoto": true, "countyid": 25, "longitude": -76.23329, "lname": "LEWIS", "badloc": false, "recid": 641, "fname": "CHARLES HUGH JR", "photo": null, "latitude": 39.469}, {"county": "HARFORD", "hometown": " HAVRE DE GRACE", "hasphoto": true, "countyid": 25, "longitude": -76.09162, "lname": "MILLS", "badloc": false, "recid": 668, "fname": "ROGER BERTHA", "photo": null, "latitude": 39.54928}, {"county": "HARFORD", "hometown": " ABERDEEN", "hasphoto": true, "countyid": 25, "longitude": -76.16412, "lname": "MORRISSEY", "badloc": false, "recid": 680, "fname": "JOHN DENNIS", "photo": null, "latitude": 39.50956}, {"county": "HARFORD", "hometown": " STREET", "hasphoto": true, "countyid": 25, "longitude": -76.37941, "lname": "OSBORNE", "badloc": false, "recid": 720, "fname": "DONALD GWYN", "photo": null, "latitude": 39.66899}, {"county": "HARFORD", "hometown": " CARDIFF", "hasphoto": true, "countyid": 25, "longitude": -76.13023, "lname": "STEINER", "badloc": false, "recid": 741, "fname": "CHARLES THOMAS", "photo": null, "latitude": 39.62594}, {"county": "HARFORD", "hometown": " WHITEFORD", "hasphoto": true, "countyid": 25, "longitude": -76.34552, "lname": "STEWART", "badloc": false, "recid": 749, "fname": "KENNETH ALAN", "photo": null, "latitude": 39.70899}, {"county": "HARFORD", "hometown": " HAVRE DE GRACE", "hasphoto": true, "countyid": 25, "longitude": -76.09162, "lname": "RINGGOLD", "badloc": false, "recid": 783, "fname": "LAWRENCE L JR", "photo": null, "latitude": 39.54928}, {"county": "HARFORD", "hometown": " STREET", "hasphoto": true, "countyid": 25, "longitude": -76.37941, "lname": "ROBINSON", "badloc": false, "recid": 790, "fname": "LARRY LEE", "photo": null, "latitude": 39.66899}, {"county": "HARFORD", "hometown": " ABERDEEN", "hasphoto": true, "countyid": 25, "longitude": -76.16412, "lname": "RUDD", "badloc": false, "recid": 809, "fname": "CHARLES NIVEN", "photo": null, "latitude": 39.50956}, {"county": "HARFORD", "hometown": " BEL AIR", "hasphoto": true, "countyid": 25, "longitude": -76.34829, "lname": "SCHAFER", "badloc": false, "recid": 831, "fname": "GARY RAY", "photo": null, "latitude": 39.53594}, {"county": "HARFORD", "hometown": " BEL AIR", "hasphoto": true, "countyid": 25, "longitude": -76.34829, "lname": "SHANKLIN", "badloc": false, "recid": 850, "fname": "ROY EDWARD", "photo": null, "latitude": 39.53594}, {"county": "HARFORD", "hometown": " BEL AIR", "hasphoto": true, "countyid": 25, "longitude": -76.34829, "lname": "SIMMETH", "badloc": false, "recid": 863, "fname": "MAXIMILIAN HEINRICH", "photo": null, "latitude": 39.53594}, {"county": "HARFORD", "hometown": " HAVRE DE GRACE", "hasphoto": true, "countyid": 25, "longitude": -76.09162, "lname": "SPUDIS", "badloc": false, "recid": 901, "fname": "RONALD ANTHONY", "photo": null, "latitude": 39.54928}, {"county": "HARFORD", "hometown": " EDGEWOOD", "hasphoto": true, "countyid": 25, "longitude": -77.47415, "lname": "TEARL", "badloc": true, "recid": 922, "fname": "MARK FRANCIS", "photo": null, "latitude": 39.45955}, {"county": "HARFORD", "hometown": " CHURCHVILLE", "hasphoto": true, "countyid": 25, "longitude": -76.24551, "lname": "TOLLIVER", "badloc": false, "recid": 938, "fname": "LARRY LEE", "photo": null, "latitude": 39.56122}, {"county": "HARFORD", "hometown": " JOPPA", "hasphoto": true, "countyid": 25, "longitude": -76.35774, "lname": "VAN DANIKER", "badloc": false, "recid": 955, "fname": "JOSEPH MICHAEL", "photo": null, "latitude": 39.43372}, {"county": "HARFORD", "hometown": " ABERDEEN", "hasphoto": true, "countyid": 25, "longitude": -76.16412, "lname": "VARNEY", "badloc": false, "recid": 956, "fname": "WILLIE ROSS", "photo": null, "latitude": 39.50956}, {"county": "HARFORD", "hometown": "BEL AIR", "hasphoto": true, "countyid": 25, "longitude": -76.34829, "lname": "VIAR", "badloc": false, "recid": 959, "fname": "CLAUDE L R", "photo": null, "latitude": 39.53594}], "countyid": 25}, {"casualties": [{"county": "HOWARD", "hometown": " JESSUP", "hasphoto": true, "countyid": 27, "longitude": -76.77525, "lname": "GREEN", "badloc": false, "recid": 312, "fname": "THOMAS OWEN", "photo": null, "latitude": 39.14927}, {"county": "HOWARD", "hometown": " CLARKSVILLE", "hasphoto": true, "countyid": 27, "longitude": -76.94303, "lname": "ADAMS", "badloc": false, "recid": 4, "fname": "STEPHEN HAMILTON", "photo": null, "latitude": 39.2065}, {"county": "HOWARD", "hometown": " ELLICOTT CITY", "hasphoto": true, "countyid": 27, "longitude": -76.79831, "lname": "PEGG", "badloc": false, "recid": 435, "fname": "DAVID BURTON", "photo": null, "latitude": 39.26733}, {"county": "HOWARD", "hometown": " SAVAGE", "hasphoto": true, "countyid": 27, "longitude": -76.82386, "lname": "POSEY", "badloc": false, "recid": 449, "fname": "ROBERT LEE JR", "photo": null, "latitude": 39.13789}, {"county": "HOWARD", "hometown": " ELLICOTT CITY", "hasphoto": true, "countyid": 27, "longitude": -76.79831, "lname": "FITEZ", "badloc": false, "recid": 522, "fname": "HARRY SAMUEL JR", "photo": null, "latitude": 39.26733}, {"county": "HOWARD", "hometown": " ELLICOTT CITY", "hasphoto": true, "countyid": 27, "longitude": -76.79831, "lname": "HANNA", "badloc": false, "recid": 530, "fname": "GARY W", "photo": null, "latitude": 39.26733}, {"county": "HOWARD", "hometown": " ELLICOTT CITY", "hasphoto": true, "countyid": 27, "longitude": -76.79831, "lname": "MOORE", "badloc": false, "recid": 676, "fname": "THOMAS WOODROW", "photo": null, "latitude": 39.26733}, {"county": "HOWARD", "hometown": " ELLICOTT CITY", "hasphoto": true, "countyid": 27, "longitude": -76.79831, "lname": "NOVOSOD", "badloc": false, "recid": 713, "fname": "RAYMOND ORITIZ", "photo": null, "latitude": 39.26733}, {"county": "HOWARD", "hometown": " HIGHLAND", "hasphoto": true, "countyid": 27, "longitude": -77.51804, "lname": "TITUS", "badloc": false, "recid": 937, "fname": "DONALD ROBERT", "photo": null, "latitude": 39.52093}], "countyid": 27}, {"casualties": [{"county": "KENT", "hometown": " GOLTS", "hasphoto": true, "countyid": 29, "longitude": -75.77466, "lname": "WILSON", "badloc": false, "recid": 1013, "fname": "VIRGIL HENRY JR", "photo": null, "latitude": 39.33678}, {"county": "KENT", "hometown": " BETTERTON", "hasphoto": true, "countyid": 29, "longitude": -76.06217, "lname": "CREW", "badloc": false, "recid": 174, "fname": "CARL JOSEPH", "photo": null, "latitude": 39.36595}, {"county": "KENT", "hometown": " GALENA", "hasphoto": true, "countyid": 29, "longitude": -75.87883, "lname": "DAVIS", "badloc": false, "recid": 516, "fname": "ROBERT JULIAN JR", "photo": null, "latitude": 39.34067}], "countyid": 29}, {"casualties": [{"county": "MONTGOMERY", "hometown": " ROCKVILLE", "hasphoto": true, "countyid": 31, "longitude": -77.15276, "lname": "ERNATHY", "badloc": false, "recid": 1, "fname": "ROBERT WILLIAM", "photo": null, "latitude": 39.084}, {"county": "MONTGOMERY", "hometown": " ROCKVILLE", "hasphoto": true, "countyid": 31, "longitude": -77.15276, "lname": "WILSON", "badloc": false, "recid": 1011, "fname": "LORNE JOHN", "photo": null, "latitude": 39.084}, {"county": "MONTGOMERY", "hometown": " SILVER SPRING", "hasphoto": true, "countyid": 31, "longitude": -77.02609, "lname": "WINTERMOYER", "badloc": false, "recid": 1020, "fname": "TERRY", "photo": null, "latitude": 38.99067}, {"county": "MONTGOMERY", "hometown": " SILVER SPRING", "hasphoto": true, "countyid": 31, "longitude": -77.02609, "lname": "WOODBURN", "badloc": false, "recid": 1026, "fname": "LARRY ALBERT", "photo": null, "latitude": 38.99067}, {"county": "MONTGOMERY", "hometown": " SILVER SPRING", "hasphoto": true, "countyid": 31, "longitude": -77.02609, "lname": "BUTLER", "badloc": false, "recid": 103, "fname": "CHARLES GILMAN JR", "photo": null, "latitude": 38.99067}, {"county": "MONTGOMERY", "hometown": " POTOMAC", "hasphoto": true, "countyid": 31, "longitude": -78.83891, "lname": "CALL", "badloc": true, "recid": 110, "fname": "JOHN HENRY III", "photo": null, "latitude": 39.56759}, {"county": "MONTGOMERY", "hometown": " WHEATON", "hasphoto": true, "countyid": 31, "longitude": -77.05526, "lname": "CAMDEN", "badloc": false, "recid": 111, "fname": "FRANCIS EDWARD JR", "photo": null, "latitude": 39.03983}, {"county": "MONTGOMERY", "hometown": " SILVER SPRING", "hasphoto": true, "countyid": 31, "longitude": -77.02609, "lname": "CAMPANELLO", "badloc": false, "recid": 113, "fname": "DARRELL EDWARD", "photo": null, "latitude": 38.99067}, {"county": "MONTGOMERY", "hometown": " ROCKVILLE", "hasphoto": true, "countyid": 31, "longitude": -77.15276, "lname": "CAPASSO", "badloc": false, "recid": 120, "fname": "JOHN ALAN", "photo": null, "latitude": 39.084}, {"county": "MONTGOMERY", "hometown": " WHEATON", "hasphoto": true, "countyid": 31, "longitude": -77.05526, "lname": "CARLOZZI", "badloc": false, "recid": 122, "fname": "ROBERT MATTHEW", "photo": null, "latitude": 39.03983}, {"county": "MONTGOMERY", "hometown": " POTOMAC", "hasphoto": true, "countyid": 31, "longitude": -78.83891, "lname": "CASNER", "badloc": true, "recid": 129, "fname": "LEWIS EDGAR JR", "photo": null, "latitude": 39.56759}, {"county": "MONTGOMERY", "hometown": " GAITHERSBURG", "hasphoto": true, "countyid": 31, "longitude": -77.20137, "lname": "CHRISTMAN", "badloc": false, "recid": 143, "fname": "WILLIAM J III", "photo": null, "latitude": 39.14344}, {"county": "MONTGOMERY", "hometown": " OLNEY", "hasphoto": true, "countyid": 31, "longitude": -77.06692, "lname": "CLARK", "badloc": false, "recid": 146, "fname": "LARRY MONROE", "photo": null, "latitude": 39.15316}, {"county": "MONTGOMERY", "hometown": " SILVER SPRING", "hasphoto": true, "countyid": 31, "longitude": -77.02609, "lname": "COLE", "badloc": false, "recid": 150, "fname": "ERNEST WESLEY", "photo": null, "latitude": 38.99067}, {"county": "MONTGOMERY", "hometown": " CHEVY CHASE", "hasphoto": true, "countyid": 31, "longitude": -77.07115, "lname": "COSTELLO", "badloc": false, "recid": 166, "fname": "JEREMIAH FREDERICK", "photo": null, "latitude": 39.00287}, {"county": "MONTGOMERY", "hometown": " SILVER SPRING", "hasphoto": true, "countyid": 31, "longitude": -77.02609, "lname": "COYNE", "badloc": false, "recid": 170, "fname": "KEVIN MARK", "photo": null, "latitude": 38.99067}, {"county": "MONTGOMERY", "hometown": " ROCKVILLE", "hasphoto": true, "countyid": 31, "longitude": -77.15276, "lname": "CROSBY", "badloc": false, "recid": 177, "fname": "GERALD LEE", "photo": null, "latitude": 39.084}, {"county": "MONTGOMERY", "hometown": " BETHESDA", "hasphoto": true, "countyid": 31, "longitude": -77.10026, "lname": "CUMBERPATCH", "badloc": false, "recid": 182, "fname": "JAMES R JR", "photo": null, "latitude": 38.98067}, {"county": "MONTGOMERY", "hometown": " SPENCERVILLE", "hasphoto": true, "countyid": 31, "longitude": -76.97831, "lname": "CUNNINGHAM", "badloc": false, "recid": 183, "fname": "RICHARD SAVAGE", "photo": null, "latitude": 39.11427}, {"county": "MONTGOMERY", "hometown": " WHEATON", "hasphoto": true, "countyid": 31, "longitude": -77.05526, "lname": "CUSTEN", "badloc": false, "recid": 186, "fname": "HENRY DAVID", "photo": null, "latitude": 39.03983}, {"county": "MONTGOMERY", "hometown": " ROCKVILLE", "hasphoto": true, "countyid": 31, "longitude": -77.15276, "lname": "CYMBALSKI", "badloc": false, "recid": 187, "fname": "KENNETH JULIAN", "photo": null, "latitude": 39.084}, {"county": "MONTGOMERY", "hometown": " GAITHERSBURG", "hasphoto": true, "countyid": 31, "longitude": -77.20137, "lname": "DALE", "badloc": false, "recid": 190, "fname": "CHARLES RICHARD", "photo": null, "latitude": 39.14344}, {"county": "MONTGOMERY", "hometown": " CHEVY CHASE", "hasphoto": true, "countyid": 31, "longitude": -77.07115, "lname": "DECK", "badloc": false, "recid": 203, "fname": "PATRICK A JR", "photo": null, "latitude": 39.00287}, {"county": "MONTGOMERY", "hometown": " ROCKVILLE", "hasphoto": true, "countyid": 31, "longitude": -77.15276, "lname": "DICKERSON", "badloc": false, "recid": 217, "fname": "TOMMY EUGENE", "photo": null, "latitude": 39.084}, {"county": "MONTGOMERY", "hometown": " SILVER SPRING", "hasphoto": true, "countyid": 31, "longitude": -77.02609, "lname": "DIEUDONNE", "badloc": false, "recid": 218, "fname": "CARROLL STEPHEN", "photo": null, "latitude": 38.99067}, {"county": "MONTGOMERY", "hometown": " DICKERSON", "hasphoto": true, "countyid": 31, "longitude": -77.42415, "lname": "DONALDSON", "badloc": false, "recid": 227, "fname": "ROBERT DANIEL", "photo": null, "latitude": 39.2201}, {"county": "MONTGOMERY", "hometown": " KENSINGTON", "hasphoto": true, "countyid": 31, "longitude": -76.57996, "lname": "DROSD", "badloc": false, "recid": 234, "fname": "WALTER LLOYD", "photo": null, "latitude": 39.08317}, {"county": "MONTGOMERY", "hometown": " BETHESDA", "hasphoto": true, "countyid": 31, "longitude": -77.10026, "lname": "DUCAT", "badloc": false, "recid": 235, "fname": "BRUCE CHALMERS", "photo": null, "latitude": 38.98067}, {"county": "MONTGOMERY", "hometown": " TAKOMA PARK", "hasphoto": true, "countyid": 31, "longitude": -77.00748, "lname": "DYSON", "badloc": false, "recid": 242, "fname": "LESLIE MILTON JR", "photo": null, "latitude": 38.97789}, {"county": "MONTGOMERY", "hometown": " GLEN ECHO", "hasphoto": true, "countyid": 31, "longitude": -77.14248, "lname": "ELLIS", "badloc": false, "recid": 250, "fname": "GEORGE LEMUEL", "photo": null, "latitude": 38.969}, {"county": "MONTGOMERY", "hometown": " CHEVY CHASE", "hasphoto": true, "countyid": 31, "longitude": -77.07115, "lname": "FLOTT", "badloc": false, "recid": 264, "fname": "CHARLES LAWRENCE", "photo": null, "latitude": 39.00287}, {"county": "MONTGOMERY", "hometown": " GAITHERSBURG", "hasphoto": true, "countyid": 31, "longitude": -77.20137, "lname": "FRALEY", "badloc": false, "recid": 270, "fname": "CLAYTON EUGENE", "photo": null, "latitude": 39.14344}, {"county": "MONTGOMERY", "hometown": " SILVER SPRING", "hasphoto": true, "countyid": 31, "longitude": -77.02609, "lname": "GAFFIGAN", "badloc": false, "recid": 275, "fname": "ROBERT MICHAEL", "photo": null, "latitude": 38.99067}, {"county": "MONTGOMERY", "hometown": " WHEATON", "hasphoto": true, "countyid": 31, "longitude": -77.05526, "lname": "GARDNER", "badloc": false, "recid": 277, "fname": "ROBERT WAYNE", "photo": null, "latitude": 39.03983}, {"county": "MONTGOMERY", "hometown": " SILVER SPRING", "hasphoto": true, "countyid": 31, "longitude": -77.02609, "lname": "GEIST", "badloc": false, "recid": 282, "fname": "STEPHEN JONATHAN", "photo": null, "latitude": 38.99067}, {"county": "MONTGOMERY", "hometown": " ROCKVILLE", "hasphoto": true, "countyid": 31, "longitude": -77.15276, "lname": "GROOM", "badloc": false, "recid": 317, "fname": "ROBERT ROXBURGH", "photo": null, "latitude": 39.084}, {"county": "MONTGOMERY", "hometown": " ROCKVILLE", "hasphoto": true, "countyid": 31, "longitude": -77.15276, "lname": "HALL", "badloc": false, "recid": 322, "fname": "JAMES BUCKNER", "photo": null, "latitude": 39.084}, {"county": "MONTGOMERY", "hometown": " ROCKVILLE", "hasphoto": true, "countyid": 31, "longitude": -77.15276, "lname": "HARRIS", "badloc": false, "recid": 325, "fname": "STEVE WESTLEL", "photo": null, "latitude": 39.084}, {"county": "MONTGOMERY", "hometown": " WHEATON", "hasphoto": true, "countyid": 31, "longitude": -77.05526, "lname": "HART", "badloc": false, "recid": 327, "fname": "DAVID MELDRUM", "photo": null, "latitude": 39.03983}, {"county": "MONTGOMERY", "hometown": " SILVER SPRING", "hasphoto": true, "countyid": 31, "longitude": -77.02609, "lname": "HARTMAN", "badloc": false, "recid": 328, "fname": "EUGENE WINFIELD", "photo": null, "latitude": 38.99067}, {"county": "MONTGOMERY", "hometown": " SILVER SPRING", "hasphoto": true, "countyid": 31, "longitude": -77.02609, "lname": "BARCLAY", "badloc": false, "recid": 34, "fname": "FREDERICK ALLEN", "photo": null, "latitude": 38.99067}, {"county": "MONTGOMERY", "hometown": " SILVER SPRING", "hasphoto": true, "countyid": 31, "longitude": -77.02609, "lname": "BARNARD", "badloc": false, "recid": 36, "fname": "HAROLD EDWARD", "photo": null, "latitude": 38.99067}, {"county": "MONTGOMERY", "hometown": " SILVER SPRING", "hasphoto": true, "countyid": 31, "longitude": -77.02609, "lname": "LOVE", "badloc": false, "recid": 374, "fname": "JAMES EDWARD", "photo": null, "latitude": 38.99067}, {"county": "MONTGOMERY", "hometown": " SILVER SPRING", "hasphoto": true, "countyid": 31, "longitude": -77.02609, "lname": "LUNDELL", "badloc": false, "recid": 379, "fname": "WAYNE THOMAS", "photo": null, "latitude": 38.99067}, {"county": "MONTGOMERY", "hometown": " ROCKVILLE", "hasphoto": true, "countyid": 31, "longitude": -77.15276, "lname": "LYTTON", "badloc": false, "recid": 381, "fname": "BALFOUR OLIVER JR", "photo": null, "latitude": 39.084}, {"county": "MONTGOMERY", "hometown": " TAKOMA PARK", "hasphoto": true, "countyid": 31, "longitude": -77.00748, "lname": "MAC IVER", "badloc": false, "recid": 382, "fname": "NEIL KIRK", "photo": null, "latitude": 38.97789}, {"county": "MONTGOMERY", "hometown": " SILVER SPRING", "hasphoto": true, "countyid": 31, "longitude": -77.02609, "lname": "MANGUM", "badloc": false, "recid": 391, "fname": "THEODORE EDWARD JR", "photo": null, "latitude": 38.99067}, {"county": "MONTGOMERY", "hometown": " SILVER SPRING", "hasphoto": true, "countyid": 31, "longitude": -77.02609, "lname": "MARTIN", "badloc": false, "recid": 395, "fname": "HAROLD DOUGLAS", "photo": null, "latitude": 38.99067}, {"county": "MONTGOMERY", "hometown": " ROCKVILLE", "hasphoto": true, "countyid": 31, "longitude": -77.15276, "lname": "MASON", "badloc": false, "recid": 399, "fname": "ROBERT DAVID", "photo": null, "latitude": 39.084}, {"county": "MONTGOMERY", "hometown": " CHEVY CHASE", "hasphoto": true, "countyid": 31, "longitude": -77.07115, "lname": "MC CARTHY", "badloc": false, "recid": 409, "fname": "THOMAS WELLER", "photo": null, "latitude": 39.00287}, {"county": "MONTGOMERY", "hometown": " SILVER SPRING", "hasphoto": true, "countyid": 31, "longitude": -77.02609, "lname": "MC GINN", "badloc": false, "recid": 416, "fname": "JOHN ARTHUR", "photo": null, "latitude": 38.99067}, {"county": "MONTGOMERY", "hometown": " SILVER SPRING", "hasphoto": true, "countyid": 31, "longitude": -77.02609, "lname": "MC GOWAN", "badloc": false, "recid": 418, "fname": "WILLIAM LEWIS", "photo": null, "latitude": 38.99067}, {"county": "MONTGOMERY", "hometown": " ROCKVILLE", "hasphoto": true, "countyid": 31, "longitude": -77.15276, "lname": "POSTORINO", "badloc": false, "recid": 450, "fname": "ERNEST", "photo": null, "latitude": 39.084}, {"county": "MONTGOMERY", "hometown": " GAITHERSBURG", "hasphoto": true, "countyid": 31, "longitude": -77.20137, "lname": "PRATHER", "badloc": false, "recid": 456, "fname": "JAMES W", "photo": null, "latitude": 39.14344}, {"county": "MONTGOMERY", "hometown": " SILVER SPRING", "hasphoto": true, "countyid": 31, "longitude": -77.02609, "lname": "BRUCE", "badloc": false, "recid": 497, "fname": "RICHARD BERT", "photo": null, "latitude": 38.99067}, {"county": "MONTGOMERY", "hometown": " GARRETT PARK", "hasphoto": true, "countyid": 31, "longitude": -77.09303, "lname": "BRUNSON", "badloc": false, "recid": 498, "fname": "LANCE DUNHAM", "photo": null, "latitude": 39.03816}, {"county": "MONTGOMERY", "hometown": " ROCKVILLE", "hasphoto": true, "countyid": 31, "longitude": -77.15276, "lname": "BEGOSH", "badloc": false, "recid": 53, "fname": "MARTIN JOHN", "photo": null, "latitude": 39.084}, {"county": "MONTGOMERY", "hometown": " SILVER SPRING", "hasphoto": true, "countyid": 31, "longitude": -77.02609, "lname": "HICKS", "badloc": false, "recid": 541, "fname": "TERRIN DINSMORE", "photo": null, "latitude": 38.99067}, {"county": "MONTGOMERY", "hometown": " ROCKVILLE", "hasphoto": true, "countyid": 31, "longitude": -77.15276, "lname": "HIGGINBOTHAM", "badloc": false, "recid": 542, "fname": "ROBERT M", "photo": null, "latitude": 39.084}, {"county": "MONTGOMERY", "hometown": " CHEVY CHASE", "hasphoto": true, "countyid": 31, "longitude": -77.07115, "lname": "HODGES", "badloc": false, "recid": 551, "fname": "DAVID LAWTON", "photo": null, "latitude": 39.00287}, {"county": "MONTGOMERY", "hometown": " SILVER SPRING", "hasphoto": true, "countyid": 31, "longitude": -77.02609, "lname": "HODGES", "badloc": false, "recid": 552, "fname": "WILLIAM JEFFREY", "photo": null, "latitude": 38.99067}, {"county": "MONTGOMERY", "hometown": " WHEATON", "hasphoto": true, "countyid": 31, "longitude": -77.05526, "lname": "HOPKINS", "badloc": false, "recid": 563, "fname": "WILLIAM KENIS", "photo": null, "latitude": 39.03983}, {"county": "MONTGOMERY", "hometown": " BETHESDA", "hasphoto": true, "countyid": 31, "longitude": -77.10026, "lname": "JOYCE", "badloc": false, "recid": 578, "fname": "JOHN MULLEN", "photo": null, "latitude": 38.98067}, {"county": "MONTGOMERY", "hometown": " BETHESDA", "hasphoto": true, "countyid": 31, "longitude": -77.10026, "lname": "JULIA", "badloc": false, "recid": 579, "fname": "JON ALBERT", "photo": null, "latitude": 38.98067}, {"county": "MONTGOMERY", "hometown": " SILVER SPRING", "hasphoto": true, "countyid": 31, "longitude": -77.02609, "lname": "KELLER", "badloc": false, "recid": 584, "fname": "WAYNE ARNOLD", "photo": null, "latitude": 38.99067}, {"county": "MONTGOMERY", "hometown": " POTOMAC", "hasphoto": true, "countyid": 31, "longitude": -78.83891, "lname": "KERCOUDE", "badloc": true, "recid": 589, "fname": "ANTHONY KONSTANT", "photo": null, "latitude": 39.56759}, {"county": "MONTGOMERY", "hometown": " SILVER SPRING", "hasphoto": true, "countyid": 31, "longitude": -77.02609, "lname": "KESSING", "badloc": false, "recid": 591, "fname": "THOMAS EDWARD JR", "photo": null, "latitude": 38.99067}, {"county": "MONTGOMERY", "hometown": " DERWOOD", "hasphoto": true, "countyid": 31, "longitude": -77.16109, "lname": "KING", "badloc": false, "recid": 598, "fname": "HAROLD JUNIOR JR", "photo": null, "latitude": 39.11733}, {"county": "MONTGOMERY", "hometown": " BETHESDA", "hasphoto": true, "countyid": 31, "longitude": -77.10026, "lname": "KLIPPEN", "badloc": false, "recid": 607, "fname": "ARTHUR G", "photo": null, "latitude": 38.98067}, {"county": "MONTGOMERY", "hometown": " TAKOMA PARK", "hasphoto": true, "countyid": 31, "longitude": -77.00748, "lname": "KRAUSSER", "badloc": false, "recid": 619, "fname": "ALBERT OTTO", "photo": null, "latitude": 38.97789}, {"county": "MONTGOMERY", "hometown": " SILVER SPRING", "hasphoto": true, "countyid": 31, "longitude": -77.02609, "lname": "LANCASTER", "badloc": false, "recid": 628, "fname": "KENNETH RAY", "photo": null, "latitude": 38.99067}, {"county": "MONTGOMERY", "hometown": " SILVER SPRING", "hasphoto": true, "countyid": 31, "longitude": -77.02609, "lname": "LIVERMAN", "badloc": false, "recid": 646, "fname": "JOHN CLARENCE", "photo": null, "latitude": 38.99067}, {"county": "MONTGOMERY", "hometown": " ROCKVILLE", "hasphoto": true, "countyid": 31, "longitude": -77.15276, "lname": "MENTZER", "badloc": false, "recid": 659, "fname": "ROBERT EDWIN JR", "photo": null, "latitude": 39.084}, {"county": "MONTGOMERY", "hometown": " ROCKVILLE", "hasphoto": true, "countyid": 31, "longitude": -77.15276, "lname": "BIFARETI", "badloc": false, "recid": 66, "fname": "JOHN ANTHONY JR", "photo": null, "latitude": 39.084}, {"county": "MONTGOMERY", "hometown": " SILVER SPRING", "hasphoto": true, "countyid": 31, "longitude": -77.02609, "lname": "BILLER", "badloc": false, "recid": 67, "fname": "HAROLD DOUGLAS", "photo": null, "latitude": 38.99067}, {"county": "MONTGOMERY", "hometown": " KENSINGTON", "hasphoto": true, "countyid": 31, "longitude": -76.57996, "lname": "MOFFITT", "badloc": false, "recid": 672, "fname": "THOMAS CARROLL D", "photo": null, "latitude": 39.08317}, {"county": "MONTGOMERY", "hometown": " SILVER SPRING", "hasphoto": true, "countyid": 31, "longitude": -77.02609, "lname": "MORRISON", "badloc": false, "recid": 679, "fname": "RICHARD KEITH", "photo": null, "latitude": 38.99067}, {"county": "MONTGOMERY", "hometown": " ROCKVILLE", "hasphoto": true, "countyid": 31, "longitude": -77.15276, "lname": "MOTE", "badloc": false, "recid": 684, "fname": "TERRY ALAN", "photo": null, "latitude": 39.084}, {"county": "MONTGOMERY", "hometown": " GERMANTOWN", "hasphoto": true, "countyid": 31, "longitude": -76.52301, "lname": "NEEF", "badloc": false, "recid": 696, "fname": "FREDERICK RICHARD", "photo": null, "latitude": 38.89261}, {"county": "MONTGOMERY", "hometown": " TAKOMA PARK", "hasphoto": true, "countyid": 31, "longitude": -77.00748, "lname": "NIELSON", "badloc": false, "recid": 703, "fname": "JOHN LEIF", "photo": null, "latitude": 38.97789}, {"county": "MONTGOMERY", "hometown": " ROCKVILLE", "hasphoto": true, "countyid": 31, "longitude": -77.15276, "lname": "NIEWENHOUS", "badloc": false, "recid": 704, "fname": "GERALD E JR", "photo": null, "latitude": 39.084}, {"county": "MONTGOMERY", "hometown": " CABIN JOHN", "hasphoto": true, "countyid": 31, "longitude": -77.15803, "lname": "BISSELL", "badloc": false, "recid": 71, "fname": "WILLIAM RONALD", "photo": null, "latitude": 38.97539}, {"county": "MONTGOMERY", "hometown": " ROCKVILLE", "hasphoto": true, "countyid": 31, "longitude": -77.15276, "lname": "NOVELLO", "badloc": false, "recid": 712, "fname": "FRANCES F", "photo": null, "latitude": 39.084}, {"county": "MONTGOMERY", "hometown": " CHEVY CHASE", "hasphoto": true, "countyid": 31, "longitude": -77.07115, "lname": "O KEEFE", "badloc": false, "recid": 716, "fname": "ROY TULANE", "photo": null, "latitude": 39.00287}, {"county": "MONTGOMERY", "hometown": " ROCKVILLE", "hasphoto": true, "countyid": 31, "longitude": -77.15276, "lname": "OSBORNE", "badloc": false, "recid": 718, "fname": "DAVID FRANKLIN", "photo": null, "latitude": 39.084}, {"county": "MONTGOMERY", "hometown": " SILVER SPRING", "hasphoto": true, "countyid": 31, "longitude": -77.02609, "lname": "PUMPHREY", "badloc": false, "recid": 733, "fname": "EDWIN HOLLAND", "photo": null, "latitude": 38.99067}, {"county": "MONTGOMERY", "hometown": " GERMANTOWN", "hasphoto": true, "countyid": 31, "longitude": -76.52301, "lname": "PURKEY", "badloc": false, "recid": 734, "fname": "JAMES PAUL", "photo": null, "latitude": 38.89261}, {"county": "MONTGOMERY", "hometown": " SILVER SPRING", "hasphoto": true, "countyid": 31, "longitude": -77.02609, "lname": "STREEKS", "badloc": false, "recid": 759, "fname": "FRANK MORRIS JR", "photo": null, "latitude": 38.99067}, {"county": "MONTGOMERY", "hometown": " SILVER SPRING", "hasphoto": true, "countyid": 31, "longitude": -77.02609, "lname": "STROUD", "badloc": false, "recid": 760, "fname": "ALLEN RALPH", "photo": null, "latitude": 38.99067}, {"county": "MONTGOMERY", "hometown": " TAKOMA PARK", "hasphoto": true, "countyid": 31, "longitude": -77.00748, "lname": "SWAB", "badloc": false, "recid": 764, "fname": "RICHARD EUGENE", "photo": null, "latitude": 38.97789}, {"county": "MONTGOMERY", "hometown": " SILVER SPRING", "hasphoto": true, "countyid": 31, "longitude": -77.02609, "lname": "SWAIN", "badloc": false, "recid": 765, "fname": "ROBERT HATCHER", "photo": null, "latitude": 38.99067}, {"county": "MONTGOMERY", "hometown": " DERWOOD", "hasphoto": true, "countyid": 31, "longitude": -77.16109, "lname": "REID", "badloc": false, "recid": 775, "fname": "JAMES ALFRED", "photo": null, "latitude": 39.11733}, {"county": "MONTGOMERY", "hometown": " KENSINGTON", "hasphoto": true, "countyid": 31, "longitude": -76.57996, "lname": "SHIELDS", "badloc": false, "recid": 857, "fname": "ROBERT HAZEN II", "photo": null, "latitude": 39.08317}, {"county": "MONTGOMERY", "hometown": " SILVER SPRING", "hasphoto": true, "countyid": 31, "longitude": -77.02609, "lname": "SIMON", "badloc": false, "recid": 864, "fname": "RALPH", "photo": null, "latitude": 38.99067}, {"county": "MONTGOMERY", "hometown": " ROCKVILLE", "hasphoto": true, "countyid": 31, "longitude": -77.15276, "lname": "SMITH", "badloc": false, "recid": 874, "fname": "ALFRED DOUGLAS JR", "photo": null, "latitude": 39.084}, {"county": "MONTGOMERY", "hometown": " SILVER SPRING", "hasphoto": true, "countyid": 31, "longitude": -77.02609, "lname": "SMITH", "badloc": false, "recid": 884, "fname": "RICHARD CLIFTON", "photo": null, "latitude": 38.99067}, {"county": "MONTGOMERY", "hometown": " SILVER SPRING", "hasphoto": true, "countyid": 31, "longitude": -77.02609, "lname": "SMITH", "badloc": false, "recid": 889, "fname": "VICTOR ARLON", "photo": null, "latitude": 38.99067}, {"county": "MONTGOMERY", "hometown": " SILVER SPRING", "hasphoto": true, "countyid": 31, "longitude": -77.02609, "lname": "BOEHM", "badloc": false, "recid": 89, "fname": "WILLIAM JOSEPH", "photo": null, "latitude": 38.99067}, {"county": "MONTGOMERY", "hometown": " BETHESDA", "hasphoto": true, "countyid": 31, "longitude": -77.10026, "lname": "SMITHSON", "badloc": false, "recid": 890, "fname": "PAUL WINTHROP", "photo": null, "latitude": 38.98067}, {"county": "MONTGOMERY", "hometown": " KENSINGTON", "hasphoto": true, "countyid": 31, "longitude": -76.57996, "lname": "SPATES", "badloc": false, "recid": 899, "fname": "WILLIAM RICHARD JR", "photo": null, "latitude": 39.08317}, {"county": "MONTGOMERY", "hometown": " SILVER SPRING", "hasphoto": true, "countyid": 31, "longitude": -77.02609, "lname": "STACY", "badloc": false, "recid": 904, "fname": "WILLIAM ARTHUR JR", "photo": null, "latitude": 38.99067}, {"county": "MONTGOMERY", "hometown": " SILVER SPRING", "hasphoto": true, "countyid": 31, "longitude": -77.02609, "lname": "SZEKELY", "badloc": false, "recid": 913, "fname": "AKOS DEZSO", "photo": null, "latitude": 38.99067}, {"county": "MONTGOMERY", "hometown": " TAKOMA PARK", "hasphoto": true, "countyid": 31, "longitude": -77.00748, "lname": "TAYLOR", "badloc": false, "recid": 920, "fname": "ROBERT EMERSON", "photo": null, "latitude": 38.97789}, {"county": "MONTGOMERY", "hometown": " BRINKLOW", "hasphoto": true, "countyid": 31, "longitude": -77.01553, "lname": "THOMPSON", "badloc": false, "recid": 929, "fname": "JOHN WALTER", "photo": null, "latitude": 39.16594}, {"county": "MONTGOMERY", "hometown": " SELLMAN", "hasphoto": true, "countyid": 31, "longitude": -77.37832, "lname": "TIBBS", "badloc": false, "recid": 933, "fname": "EUGENE COSTELLA", "photo": null, "latitude": 39.20844}, {"county": "MONTGOMERY", "hometown": " SILVER SPRING", "hasphoto": true, "countyid": 31, "longitude": -77.02609, "lname": "TINE", "badloc": false, "recid": 935, "fname": "JOHN RICHARD", "photo": null, "latitude": 38.99067}, {"county": "MONTGOMERY", "hometown": " BETHESDA", "hasphoto": true, "countyid": 31, "longitude": -77.10026, "lname": "TURNER", "badloc": false, "recid": 947, "fname": "THOMAS GAINES", "photo": null, "latitude": 38.98067}, {"county": "MONTGOMERY", "hometown": " SILVER SPRING", "hasphoto": true, "countyid": 31, "longitude": -77.02609, "lname": "BOWERS", "badloc": false, "recid": 95, "fname": "JOHN MICHAEL", "photo": null, "latitude": 38.99067}, {"county": "MONTGOMERY", "hometown": " GAITHERSBURG", "hasphoto": true, "countyid": 31, "longitude": -77.20137, "lname": "TYLER", "badloc": false, "recid": 951, "fname": "ADOLPHUS NORWOOD", "photo": null, "latitude": 39.14344}, {"county": "MONTGOMERY", "hometown": " ROCKVILLE", "hasphoto": true, "countyid": 31, "longitude": -77.15276, "lname": "VON KLEIST", "badloc": false, "recid": 960, "fname": "AUSTIN RICHARD", "photo": null, "latitude": 39.084}, {"county": "MONTGOMERY", "hometown": " SILVER SPRING", "hasphoto": true, "countyid": 31, "longitude": -77.02609, "lname": "WARD", "badloc": false, "recid": 968, "fname": "DONALD ROLAND", "photo": null, "latitude": 38.99067}, {"county": "MONTGOMERY", "hometown": " BETHESDA", "hasphoto": true, "countyid": 31, "longitude": -77.10026, "lname": "WARD", "badloc": false, "recid": 969, "fname": "JAMES PATRICK", "photo": null, "latitude": 38.98067}, {"county": "MONTGOMERY", "hometown": " CHEVY CHASE", "hasphoto": true, "countyid": 31, "longitude": -77.07115, "lname": "WARING", "badloc": false, "recid": 971, "fname": "GEORGE BADEN", "photo": null, "latitude": 39.00287}, {"county": "MONTGOMERY", "hometown": " WHEATON", "hasphoto": true, "countyid": 31, "longitude": -77.05526, "lname": "WEISMAN", "badloc": false, "recid": 984, "fname": "DONALD EUGENE", "photo": null, "latitude": 39.03983}, {"county": "MONTGOMERY", "hometown": " SILVER SPRING", "hasphoto": true, "countyid": 31, "longitude": -77.02609, "lname": "WILK", "badloc": false, "recid": 999, "fname": "WILLIAM ANTHONY", "photo": null, "latitude": 38.99067}], "countyid": 31}, {"casualties": [{"county": "PRINCE GEORGES", "hometown": " LAUREL", "hasphoto": true, "countyid": 33, "longitude": -76.84831, "lname": "WILLIAMS", "badloc": false, "recid": 1003, "fname": "SAMUEL LOUIS JR", "photo": null, "latitude": 39.09928}, {"county": "PRINCE GEORGES", "hometown": " BRANDYWINE", "hasphoto": true, "countyid": 33, "longitude": -76.84775, "lname": "WILSON", "badloc": false, "recid": 1009, "fname": "JAN FRANKLIN", "photo": null, "latitude": 38.69678}, {"county": "PRINCE GEORGES", "hometown": " HILLSIDE", "hasphoto": true, "countyid": 33, "longitude": -76.95665, "lname": "WORTH", "badloc": false, "recid": 1028, "fname": "JAMES FREDERICK", "photo": null, "latitude": 39.58955}, {"county": "PRINCE GEORGES", "hometown": " SUITLAND", "hasphoto": true, "countyid": 33, "longitude": -76.92386, "lname": "WRIGHT", "badloc": false, "recid": 1032, "fname": "DAVID LEO", "photo": null, "latitude": 38.84872}, {"county": "PRINCE GEORGES", "hometown": " RIVERDALE", "hasphoto": true, "countyid": 33, "longitude": -76.5358, "lname": "WRIGHT", "badloc": false, "recid": 1034, "fname": "HOWARD EUGENE", "photo": null, "latitude": 39.09928}, {"county": "PRINCE GEORGES", "hometown": " CAPITOL HEIGHTS", "hasphoto": true, "countyid": 33, "longitude": -76.91581, "lname": "YOUNGKIN", "badloc": false, "recid": 1042, "fname": "ANDREW WINTER JR", "photo": null, "latitude": 38.88511}, {"county": "PRINCE GEORGES", "hometown": " BERWYN HEIGHTS", "hasphoto": true, "countyid": 33, "longitude": -76.91053, "lname": "CALDWELL", "badloc": false, "recid": 108, "fname": "DONALD PATRICK", "photo": null, "latitude": 38.994}, {"county": "PRINCE GEORGES", "hometown": " SILVER HILL", "hasphoto": true, "countyid": 33, "longitude": -77.31443, "lname": "CAMPBELL", "badloc": false, "recid": 115, "fname": "WILLIAM LADD", "photo": null, "latitude": 39.45621}, {"county": "PRINCE GEORGES", "hometown": " BLADENSBURG", "hasphoto": true, "countyid": 33, "longitude": -76.93386, "lname": "ANSELL", "badloc": false, "recid": 13, "fname": "JOHN ARTHUR JR", "photo": null, "latitude": 38.93928}, {"county": "PRINCE GEORGES", "hometown": " MOUNT RAINIER", "hasphoto": true, "countyid": 33, "longitude": -76.96498, "lname": "CASTRO", "badloc": false, "recid": 132, "fname": "JOAQUIN", "photo": null, "latitude": 38.9415}, {"county": "PRINCE GEORGES", "hometown": " LAUREL", "hasphoto": true, "countyid": 33, "longitude": -76.84831, "lname": "CHASE", "badloc": false, "recid": 134, "fname": "JOHN JOSEPH", "photo": null, "latitude": 39.09928}, {"county": "PRINCE GEORGES", "hometown": " COLLEGE PARK", "hasphoto": true, "countyid": 33, "longitude": -76.95109, "lname": "ANZELONE", "badloc": false, "recid": 14, "fname": "PAUL ROBERT", "photo": null, "latitude": 39.00872}, {"county": "PRINCE GEORGES", "hometown": " COLLEGE PARK", "hasphoto": true, "countyid": 33, "longitude": -76.95109, "lname": "CLOVER", "badloc": false, "recid": 148, "fname": "LIONEL TIMOTHY", "photo": null, "latitude": 39.00872}, {"county": "PRINCE GEORGES", "hometown": " FORESTVILLE", "hasphoto": true, "countyid": 33, "longitude": -76.87497, "lname": "CONCANNON", "badloc": false, "recid": 154, "fname": "FRANCIS BRYANT", "photo": null, "latitude": 38.84511}, {"county": "PRINCE GEORGES", "hometown": " SUITLAND", "hasphoto": true, "countyid": 33, "longitude": -76.92386, "lname": "CRONKRITE", "badloc": false, "recid": 176, "fname": "WOODROW CHARLES", "photo": null, "latitude": 38.84872}, {"county": "PRINCE GEORGES", "hometown": " COLLEGE PARK", "hasphoto": true, "countyid": 33, "longitude": -76.95109, "lname": "CUMBERLAND", "badloc": false, "recid": 181, "fname": "PAUL ANTHONY", "photo": null, "latitude": 39.00872}, {"county": "PRINCE GEORGES", "hometown": " UPPER MARLBORO", "hasphoto": true, "countyid": 33, "longitude": -76.74969, "lname": "CURTIS", "badloc": false, "recid": 184, "fname": "BERNARD EUGENE", "photo": null, "latitude": 38.81595}, {"county": "PRINCE GEORGES", "hometown": " CHILLUM", "hasphoto": true, "countyid": 33, "longitude": -76.99081, "lname": "DASTOLI", "badloc": false, "recid": 193, "fname": "JOSEPH PETER", "photo": null, "latitude": 38.96372}, {"county": "PRINCE GEORGES", "hometown": " EAST RIVERDALE", "hasphoto": true, "countyid": 33, "longitude": -76.92192, "lname": "DAVIDSON", "badloc": false, "recid": 195, "fname": "DAVID ARTHUR", "photo": null, "latitude": 38.96206}, {"county": "PRINCE GEORGES", "hometown": " HILLCREST HEIGHTS", "hasphoto": true, "countyid": 33, "longitude": -76.89192, "lname": "ABSHEAR", "badloc": false, "recid": 2, "fname": "WILLIAM WALLACE", "photo": null, "latitude": 39.15205}, {"county": "PRINCE GEORGES", "hometown": " WOODLAWN", "hasphoto": true, "countyid": 33, "longitude": -76.72803, "lname": "DECKER", "badloc": false, "recid": 204, "fname": "STEVEN WILLIAM", "photo": null, "latitude": 39.32288}, {"county": "PRINCE GEORGES", "hometown": " COLLEGE PARK", "hasphoto": true, "countyid": 33, "longitude": -76.95109, "lname": "DICKERSON", "badloc": false, "recid": 215, "fname": "JAMES EGBERT", "photo": null, "latitude": 39.00872}, {"county": "PRINCE GEORGES", "hometown": " HYATTSVILLE", "hasphoto": true, "countyid": 33, "longitude": -76.94553, "lname": "DICKERSON", "badloc": false, "recid": 216, "fname": "ROBERT BOLT III", "photo": null, "latitude": 38.95594}, {"county": "PRINCE GEORGES", "hometown": " BERWYN HEIGHTS", "hasphoto": true, "countyid": 33, "longitude": -76.91053, "lname": "DIXON", "badloc": false, "recid": 220, "fname": "LINDEN BROOK", "photo": null, "latitude": 38.994}, {"county": "PRINCE GEORGES", "hometown": "HYATTSVILLE", "hasphoto": true, "countyid": 33, "longitude": -76.94553, "lname": "DORMAN", "badloc": false, "recid": 229, "fname": "DONALD RALPH", "photo": null, "latitude": 38.95594}, {"county": "PRINCE GEORGES", "hometown": " MOUNT RAINIER", "hasphoto": true, "countyid": 33, "longitude": -76.96498, "lname": "AVELLEYRA", "badloc": false, "recid": 23, "fname": "JOHN WILLIAM", "photo": null, "latitude": 38.9415}, {"county": "PRINCE GEORGES", "hometown": " RIVERDALE", "hasphoto": true, "countyid": 33, "longitude": -76.5358, "lname": "DRAKE", "badloc": false, "recid": 233, "fname": "TIMOTHY CALVIN", "photo": null, "latitude": 39.09928}, {"county": "PRINCE GEORGES", "hometown": " LANHAM", "hasphoto": true, "countyid": 33, "longitude": -76.8634, "lname": "DUNSMORE", "badloc": false, "recid": 238, "fname": "FRANK MELVIN JR", "photo": null, "latitude": 38.96875}, {"county": "PRINCE GEORGES", "hometown": " HYATTSVILLE", "hasphoto": true, "countyid": 33, "longitude": -76.94553, "lname": "DYDYNSKI", "badloc": false, "recid": 240, "fname": "STEPHEN MICHAEL", "photo": null, "latitude": 38.95594}, {"county": "PRINCE GEORGES", "hometown": " OXON HILL", "hasphoto": true, "countyid": 33, "longitude": -76.9897, "lname": "DYER", "badloc": false, "recid": 241, "fname": "LARRY EUGENE", "photo": null, "latitude": 38.80345}, {"county": "PRINCE GEORGES", "hometown": " HYATTSVILLE", "hasphoto": true, "countyid": 33, "longitude": -76.94553, "lname": "GIBSON", "badloc": false, "recid": 287, "fname": "JOHN CHRISTOPHER", "photo": null, "latitude": 38.95594}, {"county": "PRINCE GEORGES", "hometown": " HYATTSVILLE", "hasphoto": true, "countyid": 33, "longitude": -76.94553, "lname": "GILLIAM", "badloc": false, "recid": 290, "fname": "RONALD STUART", "photo": null, "latitude": 38.95594}, {"county": "PRINCE GEORGES", "hometown": " BRANDYWINE", "hasphoto": true, "countyid": 33, "longitude": -76.84775, "lname": "GRAY", "badloc": false, "recid": 308, "fname": "CHARLES GONZIE", "photo": null, "latitude": 38.69678}, {"county": "PRINCE GEORGES", "hometown": " LAUREL", "hasphoto": true, "countyid": 33, "longitude": -76.84831, "lname": "GRAY", "badloc": false, "recid": 309, "fname": "FRANCIS GARFIELD", "photo": null, "latitude": 39.09928}, {"county": "PRINCE GEORGES", "hometown": " BOWIE", "hasphoto": true, "countyid": 33, "longitude": -76.73028, "lname": "GRIGGS", "badloc": false, "recid": 316, "fname": "MICHAEL ALLEN", "photo": null, "latitude": 38.94278}, {"county": "PRINCE GEORGES", "hometown": " HILLSIDE", "hasphoto": true, "countyid": 33, "longitude": -76.95665, "lname": "HACKNEY", "badloc": false, "recid": 321, "fname": "TATE TALMAGE III", "photo": null, "latitude": 39.58955}, {"county": "PRINCE GEORGES", "hometown": " HYATTSVILLE", "hasphoto": true, "countyid": 33, "longitude": -76.94553, "lname": "HARRISON", "badloc": false, "recid": 326, "fname": "PAUL LEROY", "photo": null, "latitude": 38.95594}, {"county": "PRINCE GEORGES", "hometown": " CAMP SPRINGS", "hasphoto": true, "countyid": 33, "longitude": -76.90664, "lname": "HAVAS", "badloc": false, "recid": 331, "fname": "STEPHEN LAWRENCE", "photo": null, "latitude": 38.804}, {"county": "PRINCE GEORGES", "hometown": " LAUREL", "hasphoto": true, "countyid": 33, "longitude": -76.84831, "lname": "HENSON", "badloc": false, "recid": 337, "fname": "ALVAH WORRELL JR", "photo": null, "latitude": 39.09928}, {"county": "PRINCE GEORGES", "hometown": " HYATTSVILLE", "hasphoto": true, "countyid": 33, "longitude": -76.94553, "lname": "HICKS", "badloc": false, "recid": 340, "fname": "SILAS LUCAS JR", "photo": null, "latitude": 38.95594}, {"county": "PRINCE GEORGES", "hometown": " EAST RIVERDALE", "hasphoto": true, "countyid": 33, "longitude": -76.92192, "lname": "HUMPHREY", "badloc": false, "recid": 348, "fname": "RICHARD DAVID", "photo": null, "latitude": 38.96206}, {"county": "PRINCE GEORGES", "hometown": " LANDOVER", "hasphoto": true, "countyid": 33, "longitude": -76.89664, "lname": "HUSKEY", "badloc": false, "recid": 349, "fname": "STEPHEN JOSEPH", "photo": null, "latitude": 38.934}, {"county": "PRINCE GEORGES", "hometown": " HYATTSVILLE", "hasphoto": true, "countyid": 33, "longitude": -76.94553, "lname": "HUSSMANN", "badloc": false, "recid": 350, "fname": "KURT CHRISTOPHER", "photo": null, "latitude": 38.95594}, {"county": "PRINCE GEORGES", "hometown": " SUITLAND", "hasphoto": true, "countyid": 33, "longitude": -76.92386, "lname": "ITALIANO", "badloc": false, "recid": 355, "fname": "HARRY RICHARD", "photo": null, "latitude": 38.84872}, {"county": "PRINCE GEORGES", "hometown": " LAUREL", "hasphoto": true, "countyid": 33, "longitude": -76.84831, "lname": "LOSPINUSO", "badloc": false, "recid": 373, "fname": "JAMES", "photo": null, "latitude": 39.09928}, {"county": "PRINCE GEORGES", "hometown": " CHEVERLY", "hasphoto": true, "countyid": 33, "longitude": -76.91581, "lname": "MASON", "badloc": false, "recid": 397, "fname": "CHARLES GILBERT", "photo": null, "latitude": 38.92817}, {"county": "PRINCE GEORGES", "hometown": " LANGLEY PARK", "hasphoto": true, "countyid": 33, "longitude": -76.98136, "lname": "MATTARO", "badloc": false, "recid": 401, "fname": "DONALD JAMES JR", "photo": null, "latitude": 38.98872}, {"county": "PRINCE GEORGES", "hometown": " OXON HILL", "hasphoto": true, "countyid": 33, "longitude": -76.9897, "lname": "MATTINGLY", "badloc": false, "recid": 402, "fname": "GEORGE MICHAEL", "photo": null, "latitude": 38.80345}, {"county": "PRINCE GEORGES", "hometown": " HYATTSVILLE", "hasphoto": true, "countyid": 33, "longitude": -76.94553, "lname": "MAY", "badloc": false, "recid": 404, "fname": "DAVID MURRAY", "photo": null, "latitude": 38.95594}, {"county": "PRINCE GEORGES", "hometown": " COLLEGE PARK", "hasphoto": true, "countyid": 33, "longitude": -76.95109, "lname": "MC DERMOTT", "badloc": false, "recid": 414, "fname": "JOSEPH F III", "photo": null, "latitude": 39.00872}, {"county": "PRINCE GEORGES", "hometown": " RIVERDALE", "hasphoto": true, "countyid": 33, "longitude": -76.5358, "lname": "MC GOVERN", "badloc": false, "recid": 417, "fname": "JAMES GERALD", "photo": null, "latitude": 39.09928}, {"county": "PRINCE GEORGES", "hometown": " MITCHELLVILLE", "hasphoto": true, "countyid": 33, "longitude": -76.74275, "lname": "BARTLEY", "badloc": false, "recid": 42, "fname": "KENNETH LEONARD", "photo": null, "latitude": 38.92511}, {"county": "PRINCE GEORGES", "hometown": " LAUREL", "hasphoto": true, "countyid": 33, "longitude": -76.84831, "lname": "OKANE", "badloc": false, "recid": 424, "fname": "JAMES BRUCE", "photo": null, "latitude": 39.09928}, {"county": "PRINCE GEORGES", "hometown": " BOWIE", "hasphoto": true, "countyid": 33, "longitude": -76.73028, "lname": "BATES", "badloc": false, "recid": 43, "fname": "JAMES LEON", "photo": null, "latitude": 38.94278}, {"county": "PRINCE GEORGES", "hometown": "MOUNT RAINIER", "hasphoto": true, "countyid": 33, "longitude": -76.96498, "lname": "PAYNE", "badloc": false, "recid": 430, "fname": "LOUIS SR", "photo": null, "latitude": 38.9415}, {"county": "PRINCE GEORGES", "hometown": " DISTRICT HEIGHTS", "hasphoto": true, "countyid": 33, "longitude": -76.88942, "lname": "PENDER", "badloc": false, "recid": 436, "fname": "JOHN FRANCIS", "photo": null, "latitude": 38.85761}, {"county": "PRINCE GEORGES", "hometown": " LAUREL", "hasphoto": true, "countyid": 33, "longitude": -76.84831, "lname": "POE", "badloc": false, "recid": 448, "fname": "JOHN RAYMOND", "photo": null, "latitude": 39.09928}, {"county": "PRINCE GEORGES", "hometown": " EAST PINES", "hasphoto": true, "countyid": 33, "longitude": -76.90942, "lname": "PRICE", "badloc": false, "recid": 461, "fname": "WILLIAM EUGENE", "photo": null, "latitude": 38.95983}, {"county": "PRINCE GEORGES", "hometown": " OXON HILL", "hasphoto": true, "countyid": 33, "longitude": -76.9897, "lname": "PROCTOR", "badloc": false, "recid": 463, "fname": "FRANK MAURICE", "photo": null, "latitude": 38.80345}, {"county": "PRINCE GEORGES", "hometown": " CAPITOL HEIGHTS", "hasphoto": true, "countyid": 33, "longitude": -76.91581, "lname": "BRANDENBURG", "badloc": false, "recid": 474, "fname": "DALE", "photo": null, "latitude": 38.88511}, {"county": "PRINCE GEORGES", "hometown": " BLADENSBURG", "hasphoto": true, "countyid": 33, "longitude": -76.93386, "lname": "BRANOCK", "badloc": false, "recid": 475, "fname": "WILLIAM MICHAEL", "photo": null, "latitude": 38.93928}, {"county": "PRINCE GEORGES", "hometown": " RIVERDALE", "hasphoto": true, "countyid": 33, "longitude": -76.5358, "lname": "BRIDGETT", "badloc": false, "recid": 481, "fname": "PAUL EDWARD", "photo": null, "latitude": 39.09928}, {"county": "PRINCE GEORGES", "hometown": " CAPITOL HEIGHTS", "hasphoto": true, "countyid": 33, "longitude": -76.91581, "lname": "BROOKE", "badloc": false, "recid": 486, "fname": "EARL THOMAS", "photo": null, "latitude": 38.88511}, {"county": "PRINCE GEORGES", "hometown": " MORNINGSIDE", "hasphoto": true, "countyid": 33, "longitude": -77.5886, "lname": "BROWN", "badloc": false, "recid": 493, "fname": "THOMAS FRANCIS JR", "photo": null, "latitude": 39.4126}, {"county": "PRINCE GEORGES", "hometown": " LANGLEY PARK", "hasphoto": true, "countyid": 33, "longitude": -76.98136, "lname": "BURCH", "badloc": false, "recid": 506, "fname": "CLIFFORD GARLAND", "photo": null, "latitude": 38.98872}, {"county": "PRINCE GEORGES", "hometown": " CAPITOL HEIGHTS", "hasphoto": true, "countyid": 33, "longitude": -76.91581, "lname": "DAVIS", "badloc": false, "recid": 510, "fname": "DENNIS DEAN", "photo": null, "latitude": 38.88511}, {"county": "PRINCE GEORGES", "hometown": " RIVERDALE", "hasphoto": true, "countyid": 33, "longitude": -76.5358, "lname": "DAVIS", "badloc": false, "recid": 512, "fname": "JAMES NORRIS", "photo": null, "latitude": 39.09928}, {"county": "PRINCE GEORGES", "hometown": " HYATTSVILLE", "hasphoto": true, "countyid": 33, "longitude": -76.94553, "lname": "HAMM", "badloc": false, "recid": 526, "fname": "HARRY DAVID", "photo": null, "latitude": 38.95594}, {"county": "PRINCE GEORGES", "hometown": " CLINTON", "hasphoto": true, "countyid": 33, "longitude": -76.87747, "lname": "HARRIS", "badloc": false, "recid": 539, "fname": "JEFFREY LYNDOL", "photo": null, "latitude": 38.72984}, {"county": "PRINCE GEORGES", "hometown": " BLADENSBURG", "hasphoto": true, "countyid": 33, "longitude": -76.93386, "lname": "HILL", "badloc": false, "recid": 543, "fname": "JIMMY ARNOLD", "photo": null, "latitude": 38.93928}, {"county": "PRINCE GEORGES", "hometown": " HYATTSVILLE", "hasphoto": true, "countyid": 33, "longitude": -76.94553, "lname": "HOLDWAY", "badloc": false, "recid": 554, "fname": "DAVID KEITH", "photo": null, "latitude": 38.95594}, {"county": "PRINCE GEORGES", "hometown": " SEAT PLEASANT", "hasphoto": true, "countyid": 33, "longitude": -76.90664, "lname": "BELL", "badloc": false, "recid": 56, "fname": "GEORGE ALBERT JR", "photo": null, "latitude": 38.89622}, {"county": "PRINCE GEORGES", "hometown": " HYATTSVILLE", "hasphoto": true, "countyid": 33, "longitude": -76.94553, "lname": "HOOVER", "badloc": false, "recid": 560, "fname": "MICHAEL J", "photo": null, "latitude": 38.95594}, {"county": "PRINCE GEORGES", "hometown": " BRENTWOOD", "hasphoto": true, "countyid": 33, "longitude": -77.49276, "lname": "JOHNSON", "badloc": false, "recid": 565, "fname": "MICHAEL NEAL", "photo": null, "latitude": 39.37927}, {"county": "PRINCE GEORGES", "hometown": " BELTSVILLE", "hasphoto": true, "countyid": 33, "longitude": -76.90747, "lname": "JONES", "badloc": false, "recid": 572, "fname": "JAMES HOWARD", "photo": null, "latitude": 39.03483}, {"county": "PRINCE GEORGES", "hometown": " BELTSVILLE", "hasphoto": true, "countyid": 33, "longitude": -76.90747, "lname": "JONES", "badloc": false, "recid": 576, "fname": "THOMAS EDWARD JR", "photo": null, "latitude": 39.03483}, {"county": "PRINCE GEORGES", "hometown": " DISTRICT HEIGHTS", "hasphoto": true, "countyid": 33, "longitude": -76.88942, "lname": "JONES", "badloc": false, "recid": 577, "fname": "THOMAS WELDON", "photo": null, "latitude": 38.85761}, {"county": "PRINCE GEORGES", "hometown": " SEAT PLEASANT", "hasphoto": true, "countyid": 33, "longitude": -76.90664, "lname": "KENNEDY", "badloc": false, "recid": 587, "fname": "JAMES JR", "photo": null, "latitude": 38.89622}, {"county": "PRINCE GEORGES", "hometown": " GREENBELT", "hasphoto": true, "countyid": 33, "longitude": -76.87553, "lname": "KIEFFER", "badloc": false, "recid": 593, "fname": "WILLIAM LEWIS JR", "photo": null, "latitude": 39.00455}, {"county": "PRINCE GEORGES", "hometown": " ADELPHI", "hasphoto": true, "countyid": 33, "longitude": -76.97192, "lname": "KILCULLEN", "badloc": false, "recid": 594, "fname": "THOMAS MICHAEL", "photo": null, "latitude": 39.00317}, {"county": "PRINCE GEORGES", "hometown": " HYATTSVILLE", "hasphoto": true, "countyid": 33, "longitude": -76.94553, "lname": "BERGER", "badloc": false, "recid": 60, "fname": "BARRY HOWARD", "photo": null, "latitude": 38.95594}, {"county": "PRINCE GEORGES", "hometown": " HYATTSVILLE", "hasphoto": true, "countyid": 33, "longitude": -76.94553, "lname": "KING", "badloc": false, "recid": 600, "fname": "THOMAS RAY", "photo": null, "latitude": 38.95594}, {"county": "PRINCE GEORGES", "hometown": " CAMP SPRINGS", "hasphoto": true, "countyid": 33, "longitude": -76.90664, "lname": "KNADLE", "badloc": false, "recid": 608, "fname": "ROBERT EDWARD", "photo": null, "latitude": 38.804}, {"county": "PRINCE GEORGES", "hometown": " BELTSVILLE", "hasphoto": true, "countyid": 33, "longitude": -76.90747, "lname": "KRAMER", "badloc": false, "recid": 617, "fname": "JOHN DAVID", "photo": null, "latitude": 39.03483}, {"county": "PRINCE GEORGES", "hometown": " OXON HILL", "hasphoto": true, "countyid": 33, "longitude": -76.9897, "lname": "LARMAN", "badloc": false, "recid": 629, "fname": "CHARLES WILLARD", "photo": null, "latitude": 38.80345}, {"county": "PRINCE GEORGES", "hometown": " OXON HILL", "hasphoto": true, "countyid": 33, "longitude": -76.9897, "lname": "LEE", "badloc": false, "recid": 634, "fname": "CHARLES THOMAS", "photo": null, "latitude": 38.80345}, {"county": "PRINCE GEORGES", "hometown": " SEABROOK", "hasphoto": true, "countyid": 33, "longitude": -76.84658, "lname": "LINN", "badloc": false, "recid": 644, "fname": "JOHN HOLMES", "photo": null, "latitude": 38.96805}, {"county": "PRINCE GEORGES", "hometown": " LANDOVER", "hasphoto": true, "countyid": 33, "longitude": -76.89664, "lname": "LONG", "badloc": false, "recid": 651, "fname": "THOMAS CALVIN JR", "photo": null, "latitude": 38.934}, {"county": "PRINCE GEORGES", "hometown": " HILLSIDE", "hasphoto": true, "countyid": 33, "longitude": -76.95665, "lname": "METZKER", "badloc": false, "recid": 660, "fname": "FRANKLIN H", "photo": null, "latitude": 39.58955}, {"county": "PRINCE GEORGES", "hometown": " COLLEGE PARK", "hasphoto": true, "countyid": 33, "longitude": -76.95109, "lname": "MOORE", "badloc": false, "recid": 677, "fname": "WESLEY RICE JR", "photo": null, "latitude": 39.00872}, {"county": "PRINCE GEORGES", "hometown": " LAUREL", "hasphoto": true, "countyid": 33, "longitude": -76.84831, "lname": "MORGAN", "badloc": false, "recid": 678, "fname": "LEONARD", "photo": null, "latitude": 39.09928}, {"county": "PRINCE GEORGES", "hometown": " MOUNT RAINIER", "hasphoto": true, "countyid": 33, "longitude": -76.96498, "lname": "BIONDI", "badloc": false, "recid": 69, "fname": "JOHN MICHAEL", "photo": null, "latitude": 38.9415},