[{"casualties": [{"photo": "1111.png", "hometown": " MOUNT SAVAGE", "countyid": 1, "fname": "DONALD LEE", "lname": "WRIGHT", "hasphoto": true, "longitude": -78.78196, "county": "ALLEGANY", "recid": 1033, "latitude": 39.68786, "badloc": false}, {"photo": "1111.png", "hometown": " CUMBERLAND", "countyid": 1, "fname": "JAMES GILBERT", "lname": "CASE", "hasphoto": true, "longitude": null, "county": "ALLEGANY", "recid": 128, "latitude": null, "badloc": false}, {"photo": "1111.png", "hometown": "LONACONNG", "countyid": 1, "fname": "KENNETH D.", "lname": "CRAWFORD", "hasphoto": true, "longitude": null, "county": "ALLEGANY", "recid": 173, "latitude": null, "badloc": false}, {"photo": "18.png", "hometown": " CUMBERLAND", "countyid": 1, "fname": "CHARLES E JR", "lname": "ARONHALT", "hasphoto": true, "longitude": null, "county": "ALLEGANY", "recid": 18, "latitude": null, "badloc": false}, {"photo": "19.png", "hometown": " CUMBERLAND", "countyid": 1, "fname": "JAMES OSCAR", "lname": "ARROWOOD", "hasphoto": true, "longitude": null, "county": "ALLEGANY", "recid": 19, "latitude": null, "badloc": false}, {"photo": "1111.png", "hometown": " FROSTBURG", "countyid": 1, "fname": "THOMAS RAYMOND", "lname": "DAVIS", "hasphoto": true, "longitude": -78.92836, "county": "ALLEGANY", "recid": 196, "latitude": 39.65814, "badloc": false}, {"photo": "1111.png", "hometown": " CUMBERLAND", "countyid": 1, "fname": "WELLINGTON MARTIN", "lname": "DONAHUE", "hasphoto": true, "longitude": null, "county": "ALLEGANY", "recid": 225, "latitude": null, "badloc": false}, {"photo": "239.png", "hometown": " CUMBERLAND", "countyid": 1, "fname": "RONALD WAYNE", "lname": "DURBIN", "hasphoto": true, "longitude": null, "county": "ALLEGANY", "recid": 239, "latitude": null, "badloc": false}, {"photo": "28.png", "hometown": " CUMBERLAND", "countyid": 1, "fname": "FREDERICK NORMAN", "lname": "BAKER", "hasphoto": true, "longitude": null, "county": "ALLEGANY", "recid": 28, "latitude": null, "badloc": false}, {"photo": "1111.png", "hometown": " CUMBERLAND", "countyid": 1, "fname": "CHARLES EDWARD", "lname": "GENTRY", "hasphoto": true, "longitude": null, "county": "ALLEGANY", "recid": 283, "latitude": null, "badloc": false}, {"photo": "1111.png", "hometown": " FROSTBURG", "countyid": 1, "fname": "JAMES ALBERT", "lname": "GRAHAM", "hasphoto": true, "longitude": -78.92836, "county": "ALLEGANY", "recid": 304, "latitude": 39.65814, "badloc": false}, {"photo": "1111.png", "hometown": " CUMBERLAND", "countyid": 1, "fname": "ROBERT WILLARD", "lname": "HARTSOCK", "hasphoto": true, "longitude": null, "county": "ALLEGANY", "recid": 329, "latitude": null, "badloc": false}, {"photo": "35.png", "hometown": " CUMBERLAND", "countyid": 1, "fname": "KENNETH PAUL JR", "lname": "BARKLEY", "hasphoto": true, "longitude": null, "county": "ALLEGANY", "recid": 35, "latitude": null, "badloc": false}, {"photo": "1111.png", "hometown": " ELLERSLIE", "countyid": 1, "fname": "RICHARD HOMER", "lname": "LOWERY", "hasphoto": true, "longitude": -78.77419, "county": "ALLEGANY", "recid": 376, "latitude": 39.72064, "badloc": false}, {"photo": "1111.png", "hometown": " CUMBERLAND", "countyid": 1, "fname": "ROBERT HARRISON JR", "lname": "MARTIN", "hasphoto": true, "longitude": null, "county": "ALLEGANY", "recid": 396, "latitude": null, "badloc": false}, {"photo": "415.jpg", "hometown": " CUMBERLAND", "countyid": 1, "fname": "ROY LAWRENCE", "lname": "MC DONALD", "hasphoto": true, "longitude": null, "county": "ALLEGANY", "recid": 415, "latitude": null, "badloc": false}, {"photo": "1111.png", "hometown": " CUMBERLAND", "countyid": 1, "fname": "WILLIAM EARL", "lname": "PROPST", "hasphoto": true, "longitude": null, "county": "ALLEGANY", "recid": 464, "latitude": null, "badloc": false}, {"photo": "1111.png", "hometown": " CUMBERLAND", "countyid": 1, "fname": "JOHN THOMAS", "lname": "HARE", "hasphoto": true, "longitude": null, "county": "ALLEGANY", "recid": 534, "latitude": null, "badloc": false}, {"photo": "1111.png", "hometown": " CUMBERLAND", "countyid": 1, "fname": "GEORGE SAMUEL", "lname": "KIMMELL", "hasphoto": true, "longitude": null, "county": "ALLEGANY", "recid": 596, "latitude": null, "badloc": false}, {"photo": "606.png", "hometown": " CUMBERLAND", "countyid": 1, "fname": "MARK LEE", "lname": "KLINE", "hasphoto": true, "longitude": null, "county": "ALLEGANY", "recid": 606, "latitude": null, "badloc": false}, {"photo": "1111.png", "hometown": " CUMBERLAND", "countyid": 1, "fname": "EDWARD STEPHEN", "lname": "KOCH", "hasphoto": true, "longitude": null, "county": "ALLEGANY", "recid": 610, "latitude": null, "badloc": false}, {"photo": "1111.png", "hometown": " CUMBERLAND", "countyid": 1, "fname": "THOMAS JOHN", "lname": "MC MAHON", "hasphoto": true, "longitude": null, "county": "ALLEGANY", "recid": 654, "latitude": null, "badloc": false}, {"photo": "1111.png", "hometown": " FROSTBURG", "countyid": 1, "fname": "CLARENCE DALE", "lname": "MILLER", "hasphoto": true, "longitude": -78.92836, "county": "ALLEGANY", "recid": 665, "latitude": 39.65814, "badloc": false}, {"photo": "1111.png", "hometown": " CUMBERLAND", "countyid": 1, "fname": "LEONARD ALLEN", "lname": "MONNETT", "hasphoto": true, "longitude": null, "county": "ALLEGANY", "recid": 673, "latitude": null, "badloc": false}, {"photo": "72.png", "hometown": " CUMBERLAND", "countyid": 1, "fname": "ROBERT LEE JR", "lname": "BITTINGER", "hasphoto": true, "longitude": null, "county": "ALLEGANY", "recid": 72, "latitude": null, "badloc": false}, {"photo": "1111.png", "hometown": " CUMBERLAND", "countyid": 1, "fname": "MICHAEL JAMES", "lname": "RANDOLPH", "hasphoto": true, "longitude": null, "county": "ALLEGANY", "recid": 740, "latitude": null, "badloc": false}, {"photo": "1111.png", "hometown": " CUMBERLAND", "countyid": 1, "fname": "JOSEPH PATRICK", "lname": "ROWLEY", "hasphoto": true, "longitude": null, "county": "ALLEGANY", "recid": 805, "latitude": null, "badloc": false}, {"photo": "1111.png", "hometown": " CUMBERLAND", "countyid": 1, "fname": "FRANCIS GROVER", "lname": "RUPPERT", "hasphoto": true, "longitude": null, "county": "ALLEGANY", "recid": 812, "latitude": null, "badloc": false}, {"photo": "1111.png", "hometown": " CUMBERLAND", "countyid": 1, "fname": "JOHN DERWOOD JR", "lname": "SAVILLE", "hasphoto": true, "longitude": null, "county": "ALLEGANY", "recid": 825, "latitude": null, "badloc": false}, {"photo": "851.jpg", "hometown": " CUMBERLAND", "countyid": 1, "fname": "JOHN DAVID", "lname": "SHARP", "hasphoto": true, "longitude": null, "county": "ALLEGANY", "recid": 851, "latitude": null, "badloc": false}, {"photo": "1111.png", "hometown": " CUMBERLAND", "countyid": 1, "fname": "THOMAS JACOB", "lname": "TORRINGTON", "hasphoto": true, "longitude": null, "county": "ALLEGANY", "recid": 940, "latitude": null, "badloc": false}, {"photo": "1111.png", "hometown": " CUMBERLAND", "countyid": 1, "fname": "JOSEPH RICHARD JR", "lname": "TWIGG", "hasphoto": true, "longitude": null, "county": "ALLEGANY", "recid": 949, "latitude": null, "badloc": false}, {"photo": "1111.png", "hometown": " CUMBERLAND", "countyid": 1, "fname": "CLARENCE EDWARD", "lname": "UMSTOT", "hasphoto": true, "longitude": null, "county": "ALLEGANY", "recid": 952, "latitude": null, "badloc": false}, {"photo": "1111.png", "hometown": " MOUNT SAVAGE", "countyid": 1, "fname": "ROBERT DALE", "lname": "WALSH", "hasphoto": true, "longitude": -78.78196, "county": "ALLEGANY", "recid": 966, "latitude": 39.68786, "badloc": false}, {"photo": "1111.png", "hometown": " CUMBERLAND", "countyid": 1, "fname": "JOHN THOMAS", "lname": "WERTMAN", "hasphoto": true, "longitude": null, "county": "ALLEGANY", "recid": 987, "latitude": null, "badloc": false}, {"photo": "992.jpg", "hometown": " FROSTBURG", "countyid": 1, "fname": "CHARLES ELMER", "lname": "WHITEFIELD", "hasphoto": true, "longitude": -78.92836, "county": "ALLEGANY", "recid": 992, "latitude": 39.65814, "badloc": false}, {"photo": "1111.png", "hometown": " CUMBERLAND", "countyid": 1, "fname": "ROGER DALE", "lname": "WILFONG", "hasphoto": true, "longitude": null, "county": "ALLEGANY", "recid": 998, "latitude": null, "badloc": false}], "countyid": 1}, {"casualties": [{"photo": "1111.png", "hometown": " ANNAPOLIS", "countyid": 3, "fname": "ALBERT FLOYD JR", "lname": "WRIGHT", "hasphoto": true, "longitude": -76.47496, "county": "ANNE ARUNDEL", "recid": 1030, "latitude": 38.95122, "badloc": false}, {"photo": "1111.png", "hometown": " ANNAPOLIS", "countyid": 3, "fname": "DAVID IRVIN", "lname": "WRIGHT", "hasphoto": true, "longitude": -76.47496, "county": "ANNE ARUNDEL", "recid": 1031, "latitude": 38.95122, "badloc": false}, {"photo": "1111.png", "hometown": " GLEN BURNIE", "countyid": 3, "fname": "JAMES DOMINIO", "lname": "YOUNGHAM", "hasphoto": true, "longitude": -76.63858, "county": "ANNE ARUNDEL", "recid": 1041, "latitude": 39.14316, "badloc": false}, {"photo": "1111.png", "hometown": " GLEN BURNIE", "countyid": 3, "fname": "HARVEY WILLIAM", "lname": "CARTER", "hasphoto": true, "longitude": -76.63858, "county": "ANNE ARUNDEL", "recid": 126, "latitude": 39.14316, "badloc": false}, {"photo": "1111.png", "hometown": " HARWOOD", "countyid": 3, "fname": "MAURICE P JR", "lname": "CHAPMAN", "hasphoto": true, "longitude": -76.60024, "county": "ANNE ARUNDEL", "recid": 133, "latitude": 38.87539, "badloc": false}, {"photo": "1111.png", "hometown": " GAMBRILLS", "countyid": 3, "fname": "RAINER LOUIS", "lname": "COLE", "hasphoto": true, "longitude": -76.66524, "county": "ANNE ARUNDEL", "recid": 151, "latitude": 39.06705, "badloc": false}, {"photo": "1111.png", "hometown": " ANNAPOLIS", "countyid": 3, "fname": "WILMER PAUL", "lname": "COOK", "hasphoto": true, "longitude": -76.47496, "county": "ANNE ARUNDEL", "recid": 158, "latitude": 38.95122, "badloc": false}, {"photo": "1111.png", "hometown": " PASADENA", "countyid": 3, "fname": "DEAN JOHN", "lname": "CRAIG", "hasphoto": true, "longitude": -76.56358, "county": "ANNE ARUNDEL", "recid": 172, "latitude": 39.10955, "badloc": false}, {"photo": "1111.png", "hometown": " ANNAPOLIS", "countyid": 3, "fname": "JOHN", "lname": "DE MEY", "hasphoto": true, "longitude": -76.47496, "county": "ANNE ARUNDEL", "recid": 199, "latitude": 38.95122, "badloc": false}, {"photo": "1111.png", "hometown": " EDGEWATER", "countyid": 3, "fname": "CARL ANDREW", "lname": "DEAN", "hasphoto": true, "longitude": -76.56857, "county": "ANNE ARUNDEL", "recid": 200, "latitude": 38.94845, "badloc": false}, {"photo": "1111.png", "hometown": " PASADENA", "countyid": 3, "fname": "GORDON JAMES JR", "lname": "DEITZ", "hasphoto": true, "longitude": -76.56358, "county": "ANNE ARUNDEL", "recid": 207, "latitude": 39.10955, "badloc": false}, {"photo": "1111.png", "hometown": " ANNAPOLIS", "countyid": 3, "fname": "LAWRENCE HENRY", "lname": "DONNELL", "hasphoto": true, "longitude": -76.47496, "county": "ANNE ARUNDEL", "recid": 228, "latitude": 38.95122, "badloc": false}, {"photo": "230.jpg", "hometown": " CROWNSVILLE", "countyid": 3, "fname": "GARDNER", "lname": "DORSEY", "hasphoto": true, "longitude": -76.60135, "county": "ANNE ARUNDEL", "recid": 230, "latitude": 39.02844, "badloc": false}, {"photo": "1111.png", "hometown": " GLEN BURNIE", "countyid": 3, "fname": "LUTHER JAMES JR", "lname": "DOSS", "hasphoto": true, "longitude": -76.63858, "county": "ANNE ARUNDEL", "recid": 232, "latitude": 39.14316, "badloc": false}, {"photo": "1111.png", "hometown": " GLEN BURNIE", "countyid": 3, "fname": "LEWIS JOHN", "lname": "FOGLER", "hasphoto": true, "longitude": -76.63858, "county": "ANNE ARUNDEL", "recid": 265, "latitude": 39.14316, "badloc": false}, {"photo": "1111.png", "hometown": " SEVERN", "countyid": 3, "fname": "WILLIAM HENRY", "lname": "FOSTER", "hasphoto": true, "longitude": -76.52246, "county": "ANNE ARUNDEL", "recid": 267, "latitude": 39.04122, "badloc": false}, {"photo": "1111.png", "hometown": " ANNAPOLIS", "countyid": 3, "fname": "KURT WILLIAM", "lname": "GAREISS", "hasphoto": true, "longitude": -76.47496, "county": "ANNE ARUNDEL", "recid": 278, "latitude": 38.95122, "badloc": false}, {"photo": "1111.png", "hometown": " GAMBRILLS", "countyid": 3, "fname": "MICHAEL E", "lname": "GIBIS", "hasphoto": true, "longitude": -76.66524, "county": "ANNE ARUNDEL", "recid": 286, "latitude": 39.06705, "badloc": false}, {"photo": "1111.png", "hometown": " ANNAPOLIS", "countyid": 3, "fname": "EDWARD LEON", "lname": "GOODMAN", "hasphoto": true, "longitude": -76.47496, "county": "ANNE ARUNDEL", "recid": 298, "latitude": 38.95122, "badloc": false}, {"photo": "32.png", "hometown": " EDGEWATER", "countyid": 3, "fname": "ROBERT LLOYD", "lname": "BALDWIN", "hasphoto": true, "longitude": -76.56857, "county": "ANNE ARUNDEL", "recid": 32, "latitude": 38.94845, "badloc": false}, {"photo": "1111.png", "hometown": " GLEN BURNIE", "countyid": 3, "fname": "WILLIS FRANCIS", "lname": "HOUSE", "hasphoto": true, "longitude": -76.63858, "county": "ANNE ARUNDEL", "recid": 342, "latitude": 39.14316, "badloc": false}, {"photo": "369.png", "hometown": " BROOKLYN PARK", "countyid": 3, "fname": "DAVID RUDOLPH", "lname": "JOHNSON", "hasphoto": true, "longitude": -76.61636, "county": "ANNE ARUNDEL", "recid": 369, "latitude": 39.22844, "badloc": false}, {"photo": "1111.png", "hometown": " PASADENA", "countyid": 3, "fname": "ALLEN LEE", "lname": "LUCAS", "hasphoto": true, "longitude": -76.56358, "county": "ANNE ARUNDEL", "recid": 377, "latitude": 39.10955, "badloc": false}, {"photo": "1111.png", "hometown": " ANNAPOLIS", "countyid": 3, "fname": "JAMES S JR", "lname": "MAC VICKAR", "hasphoto": true, "longitude": -76.47496, "county": "ANNE ARUNDEL", "recid": 384, "latitude": 38.95122, "badloc": false}, {"photo": "1111.png", "hometown": " POINT PLEASANT", "countyid": 3, "fname": "DONALD LEE", "lname": "MC CLANAHAN", "hasphoto": true, "longitude": -76.58747, "county": "ANNE ARUNDEL", "recid": 410, "latitude": 39.17872, "badloc": false}, {"photo": "1111.png", "hometown": " GLEN BURNIE", "countyid": 3, "fname": "NORMAND PAUL", "lname": "PERRON", "hasphoto": true, "longitude": -76.63858, "county": "ANNE ARUNDEL", "recid": 441, "latitude": 39.14316, "badloc": false}, {"photo": "1111.png", "hometown": " LOTHIAN", "countyid": 3, "fname": "HARVEY TYRONE", "lname": "PINKNEY", "hasphoto": true, "longitude": -76.64663, "county": "ANNE ARUNDEL", "recid": 445, "latitude": 38.82345, "badloc": false}, {"photo": "483.png", "hometown": " FERNDALE", "countyid": 3, "fname": "CHARLES JACKSON", "lname": "BRITT", "hasphoto": true, "longitude": -76.63191, "county": "ANNE ARUNDEL", "recid": 483, "latitude": 39.1765, "badloc": false}, {"photo": "1111.png", "hometown": " SEVERNA PARK", "countyid": 3, "fname": "RONALD JOSEPH", "lname": "BRITZ", "hasphoto": true, "longitude": -76.54524, "county": "ANNE ARUNDEL", "recid": 485, "latitude": 39.07039, "badloc": false}, {"photo": "1111.png", "hometown": " PASADENA", "countyid": 3, "fname": "JOSEPH CLINTON", "lname": "BROWN", "hasphoto": true, "longitude": -76.56358, "county": "ANNE ARUNDEL", "recid": 489, "latitude": 39.10955, "badloc": false}, {"photo": "1111.png", "hometown": " PASADENA", "countyid": 3, "fname": "LEE RAYMOND JR", "lname": "BRUCE", "hasphoto": true, "longitude": -76.56358, "county": "ANNE ARUNDEL", "recid": 496, "latitude": 39.10955, "badloc": false}, {"photo": "1111.png", "hometown": " GLEN BURNIE", "countyid": 3, "fname": "ROBERT GRIFFIN", "lname": "DAVIDSON", "hasphoto": true, "longitude": -76.63858, "county": "ANNE ARUNDEL", "recid": 509, "latitude": 39.14316, "badloc": false}, {"photo": "1111.png", "hometown": " LOTHIAN", "countyid": 3, "fname": "LAWRENCE ARNOLD", "lname": "DAVIS", "hasphoto": true, "longitude": -76.64663, "county": "ANNE ARUNDEL", "recid": 514, "latitude": 38.82345, "badloc": false}, {"photo": "52.png", "hometown": " SEVERNA PARK", "countyid": 3, "fname": "CHARLES ARTHUR", "lname": "BEDSOLE", "hasphoto": true, "longitude": -76.54524, "county": "ANNE ARUNDEL", "recid": 52, "latitude": 39.07039, "badloc": false}, {"photo": "1111.png", "hometown": " GALESVILLE", "countyid": 3, "fname": "MICHAEL OWEN", "lname": "HARDESTY", "hasphoto": true, "longitude": -76.55107, "county": "ANNE ARUNDEL", "recid": 532, "latitude": 38.84373, "badloc": false}, {"photo": "1111.png", "hometown": " PASADENA", "countyid": 3, "fname": "MICHAEL LEE", "lname": "HARP", "hasphoto": true, "longitude": -76.56358, "county": "ANNE ARUNDEL", "recid": 537, "latitude": 39.10955, "badloc": false}, {"photo": "1111.png", "hometown": " ANNAPOLIS", "countyid": 3, "fname": "DANNY LEE", "lname": "HOPKINS", "hasphoto": true, "longitude": -76.47496, "county": "ANNE ARUNDEL", "recid": 562, "latitude": 38.95122, "badloc": false}, {"photo": "1111.png", "hometown": " PASADENA", "countyid": 3, "fname": "DONALD ERNEST", "lname": "JONES", "hasphoto": true, "longitude": -76.56358, "county": "ANNE ARUNDEL", "recid": 568, "latitude": 39.10955, "badloc": false}, {"photo": "1111.png", "hometown": " MAYO", "countyid": 3, "fname": "JONATHAN LEE", "lname": "LAMM", "hasphoto": true, "longitude": -76.5119, "county": "ANNE ARUNDEL", "recid": 626, "latitude": 38.88761, "badloc": false}, {"photo": "1111.png", "hometown": " ANNAPOLIS", "countyid": 3, "fname": "PHILIPPE LUC", "lname": "LAS HERMES", "hasphoto": true, "longitude": -76.47496, "county": "ANNE ARUNDEL", "recid": 630, "latitude": 38.95122, "badloc": false}, {"photo": "1111.png", "hometown": " ANNAPOLIS", "countyid": 3, "fname": "PAUL AUSTIN", "lname": "LEONARD", "hasphoto": true, "longitude": -76.47496, "county": "ANNE ARUNDEL", "recid": 637, "latitude": 38.95122, "badloc": false}, {"photo": "1111.png", "hometown": " HARWOOD", "countyid": 3, "fname": "JOHN", "lname": "MOULDEN", "hasphoto": true, "longitude": -76.60024, "county": "ANNE ARUNDEL", "recid": 685, "latitude": 38.87539, "badloc": false}, {"photo": "1111.png", "hometown": " ANNAPOLIS", "countyid": 3, "fname": "JERRY WAYNE", "lname": "MUSTAIN", "hasphoto": true, "longitude": -76.47496, "county": "ANNE ARUNDEL", "recid": 694, "latitude": 38.95122, "badloc": false}, {"photo": "1111.png", "hometown": " SEVERNA PARK", "countyid": 3, "fname": "RICHARD EDMUND JR", "lname": "NITSCHE", "hasphoto": true, "longitude": -76.54524, "county": "ANNE ARUNDEL", "recid": 705, "latitude": 39.07039, "badloc": false}, {"photo": "1111.png", "hometown": " ANNAPOLIS", "countyid": 3, "fname": "EMIDIO", "lname": "PASQUALUCCI", "hasphoto": true, "longitude": -76.47496, "county": "ANNE ARUNDEL", "recid": 730, "latitude": 38.95122, "badloc": false}, {"photo": "1111.png", "hometown": " ARNOLD", "countyid": 3, "fname": "DANNY JOE", "lname": "QUAITE", "hasphoto": true, "longitude": -76.50274, "county": "ANNE ARUNDEL", "recid": 736, "latitude": 39.03206, "badloc": false}, {"photo": "1111.png", "hometown": " GLEN BURNIE", "countyid": 3, "fname": "WILLIAM REED", "lname": "STOCKS", "hasphoto": true, "longitude": -76.63858, "county": "ANNE ARUNDEL", "recid": 754, "latitude": 39.14316, "badloc": false}, {"photo": "1111.png", "hometown": " GLEN BURNIE", "countyid": 3, "fname": "WILLIAM MARVIN JR", "lname": "STONE", "hasphoto": true, "longitude": -76.63858, "county": "ANNE ARUNDEL", "recid": 756, "latitude": 39.14316, "badloc": false}, {"photo": "1111.png", "hometown": " PASADENA", "countyid": 3, "fname": "HARRY NELSON", "lname": "STONESIFER", "hasphoto": true, "longitude": -76.56358, "county": "ANNE ARUNDEL", "recid": 758, "latitude": 39.10955, "badloc": false}, {"photo": "1111.png", "hometown": " PASADENA", "countyid": 3, "fname": "BOBBY DALE", "lname": "ROGERS", "hasphoto": true, "longitude": -76.56358, "county": "ANNE ARUNDEL", "recid": 797, "latitude": 39.10955, "badloc": false}, {"photo": "1111.png", "hometown": " FORT MEADE", "countyid": 3, "fname": "ALFRED GEORGE SR", "lname": "SAPP", "hasphoto": true, "longitude": -76.74323, "county": "ANNE ARUNDEL", "recid": 820, "latitude": 39.10815, "badloc": false}, {"photo": "1111.png", "hometown": " GLEN BURNIE", "countyid": 3, "fname": "JAMES RUSSELL", "lname": "SAXON", "hasphoto": true, "longitude": -76.63858, "county": "ANNE ARUNDEL", "recid": 827, "latitude": 39.14316, "badloc": false}, {"photo": "1111.png", "hometown": " SEVERN", "countyid": 3, "fname": "JOHN FRANCIS JR", "lname": "SEWELL", "hasphoto": true, "longitude": -76.52246, "county": "ANNE ARUNDEL", "recid": 847, "latitude": 39.04122, "badloc": false}, {"photo": "85.png", "hometown": " PASADENA", "countyid": 3, "fname": "EDWARD ALLEN", "lname": "BOARDMAN", "hasphoto": true, "longitude": -76.56358, "county": "ANNE ARUNDEL", "recid": 85, "latitude": 39.10955, "badloc": false}, {"photo": "1111.png", "hometown": " LINTHICUM HEIGHTS", "countyid": 3, "fname": "DONALD EMERSON JR", "lname": "SHAY", "hasphoto": true, "longitude": -76.66219, "county": "ANNE ARUNDEL", "recid": 852, "latitude": 39.20344, "badloc": false}, {"photo": "1111.png", "hometown": " GLEN BURNIE", "countyid": 3, "fname": "JOHN JOSEPH", "lname": "SHORTER", "hasphoto": true, "longitude": -76.63858, "county": "ANNE ARUNDEL", "recid": 860, "latitude": 39.14316, "badloc": false}, {"photo": "1111.png", "hometown": " FORT MEADE", "countyid": 3, "fname": "ADRIAN EDWARD", "lname": "SIGLER", "hasphoto": true, "longitude": -76.74323, "county": "ANNE ARUNDEL", "recid": 862, "latitude": 39.10815, "badloc": false}, {"photo": "886.jpg", "hometown": " CROWNSVILLE", "countyid": 3, "fname": "RUSSELL FRANCIS", "lname": "SMITH", "hasphoto": true, "longitude": -76.60135, "county": "ANNE ARUNDEL", "recid": 886, "latitude": 39.02844, "badloc": false}, {"photo": "1111.png", "hometown": " GAMBRILLS", "countyid": 3, "fname": "WILLIAM LEONARD", "lname": "SNODGRASS", "hasphoto": true, "longitude": -76.66524, "county": "ANNE ARUNDEL", "recid": 892, "latitude": 39.06705, "badloc": false}, {"photo": "90.png", "hometown": " PASADENA", "countyid": 3, "fname": "ROBERT LOUIS", "lname": "BOLAN", "hasphoto": true, "longitude": -76.56358, "county": "ANNE ARUNDEL", "recid": 90, "latitude": 39.10955, "badloc": false}, {"photo": "1111.png", "hometown": " GLEN BURNIE", "countyid": 3, "fname": "JAMES ALLAN", "lname": "TREMBLAY", "hasphoto": true, "longitude": -76.63858, "county": "ANNE ARUNDEL", "recid": 944, "latitude": 39.14316, "badloc": false}, {"photo": "1111.png", "hometown": " ANNAPOLIS", "countyid": 3, "fname": "WILLIAM EUGENE JR", "lname": "TUCKER", "hasphoto": true, "longitude": -76.47496, "county": "ANNE ARUNDEL", "recid": 945, "latitude": 38.95122, "badloc": false}, {"photo": "1111.png", "hometown": " ANNAPOLIS", "countyid": 3, "fname": "ALEXANDER KEARNEY", "lname": "WARD", "hasphoto": true, "longitude": -76.47496, "county": "ANNE ARUNDEL", "recid": 967, "latitude": 38.95122, "badloc": false}, {"photo": "1111.png", "hometown": " ANNAPOLIS", "countyid": 3, "fname": "CARLISLE OGDEN JR", "lname": "WARK", "hasphoto": true, "longitude": -76.47496, "county": "ANNE ARUNDEL", "recid": 972, "latitude": 38.95122, "badloc": false}, {"photo": "1111.png", "hometown": " FORT MEADE", "countyid": 3, "fname": "ROBERT JAMES JR", "lname": "WATKINS", "hasphoto": true, "longitude": -76.74323, "county": "ANNE ARUNDEL", "recid": 977, "latitude": 39.10815, "badloc": false}, {"photo": "1111.png", "hometown": " ANNAPOLIS", "countyid": 3, "fname": "TEDDY", "lname": "WAXMAN", "hasphoto": true, "longitude": -76.47496, "county": "ANNE ARUNDEL", "recid": 981, "latitude": 38.95122, "badloc": false}, {"photo": "1111.png", "hometown": " EDGEWATER", "countyid": 3, "fname": "DALLAS ARNOLD", "lname": "WEST", "hasphoto": true, "longitude": -76.56857, "county": "ANNE ARUNDEL", "recid": 988, "latitude": 38.94845, "badloc": false}], "countyid": 3}, {"casualties": [{"photo": "251.jpg", "hometown": " SUNDERLAND", "countyid": 9, "fname": "STEWART CHARLES", "lname": "EMERSON", "hasphoto": true, "longitude": -76.62857, "county": "CALVERT", "recid": 251, "latitude": 38.65512, "badloc": false}, {"photo": "1111.png", "hometown": " PRINCE FREDERICK", "countyid": 9, "fname": "ROBERT LEE", "lname": "KING", "hasphoto": true, "longitude": null, "county": "CALVERT", "recid": 599, "latitude": null, "badloc": false}, {"photo": "1111.png", "hometown": " PRINCE FREDERICK", "countyid": 9, "fname": "JAMES ALLEN", "lname": "PARKER", "hasphoto": true, "longitude": null, "county": "CALVERT", "recid": 726, "latitude": null, "badloc": false}, {"photo": "1111.png", "hometown": " PRINCE FREDERICK", "countyid": 9, "fname": "SHERWOOD", "lname": "REYNOLDS", "hasphoto": true, "longitude": null, "county": "CALVERT", "recid": 778, "latitude": null, "badloc": false}], "countyid": 9}, {"casualties": [{"photo": "100.jpg", "hometown": " DENTON", "countyid": 11, "fname": "ROBERTS PATON", "lname": "BURROWS", "hasphoto": true, "longitude": null, "county": "CAROLINE", "recid": 100, "latitude": null, "badloc": false}, {"photo": "341.jpg", "hometown": " RIDGELY", "countyid": 11, "fname": "WILLIAM HANDSOME", "lname": "HOUSE", "hasphoto": true, "longitude": -75.86216, "county": "CAROLINE", "recid": 341, "latitude": 38.91928, "badloc": false}, {"photo": "1111.png", "hometown": "GOLDSBORO", "countyid": 11, "fname": "ALBERT RAYMOND", "lname": "POTTER", "hasphoto": true, "longitude": -75.7866, "county": "CAROLINE", "recid": 451, "latitude": 39.034, "badloc": false}, {"photo": "1111.png", "hometown": " FEDERALSBURG", "countyid": 11, "fname": "GORDON LEE", "lname": "LAWRENCE", "hasphoto": true, "longitude": -75.81604, "county": "CAROLINE", "recid": 631, "latitude": 38.74623, "badloc": false}, {"photo": "1111.png", "hometown": " DENTON", "countyid": 11, "fname": "ANDREW LEON", "lname": "LEWIS", "hasphoto": true, "longitude": null, "county": "CAROLINE", "recid": 640, "latitude": null, "badloc": false}], "countyid": 11}, {"casualties": [{"photo": "1111.png", "hometown": " MANCHESTER", "countyid": 13, "fname": "JAMES HENRY", "lname": "ZUMBRUN", "hasphoto": true, "longitude": -76.88498, "county": "CARROLL", "recid": 1046, "latitude": 39.66121, "badloc": false}, {"photo": "1111.png", "hometown": " WESTMINSTER", "countyid": 13, "fname": "JAMES NORMAN", "lname": "BYERS", "hasphoto": true, "longitude": null, "county": "CARROLL", "recid": 105, "latitude": null, "badloc": false}, {"photo": "1111.png", "hometown": " WESTMINSTER", "countyid": 13, "fname": "CARL M", "lname": "EGOLF", "hasphoto": true, "longitude": null, "county": "CARROLL", "recid": 248, "latitude": null, "badloc": false}, {"photo": "1111.png", "hometown": " MARRIOTTSVILLE", "countyid": 13, "fname": "JOHN HARVEY", "lname": "FEEZER", "hasphoto": true, "longitude": null, "county": "CARROLL", "recid": 259, "latitude": null, "badloc": false}, {"photo": "1111.png", "hometown": " HAMPSTEAD", "countyid": 13, "fname": "MURIEL STANLEY", "lname": "GROOMES", "hasphoto": true, "longitude": -76.85109, "county": "CARROLL", "recid": 318, "latitude": 39.61927, "badloc": false}, {"photo": "1111.png", "hometown": " WESTMINSTER", "countyid": 13, "fname": "FREDERICK JOHN", "lname": "MAGSAMEN", "hasphoto": true, "longitude": null, "county": "CARROLL", "recid": 389, "latitude": null, "badloc": false}, {"photo": "1111.png", "hometown": " WESTMINSTER", "countyid": 13, "fname": "SHERMAN EDWARD JR", "lname": "FLANAGAN", "hasphoto": true, "longitude": null, "county": "CARROLL", "recid": 524, "latitude": null, "badloc": false}, {"photo": "54.png", "hometown": " AVONDALE", "countyid": 13, "fname": "STEPHEN EDWIN", "lname": "BELCHER", "hasphoto": true, "longitude": -77.03082, "county": "CARROLL", "recid": 54, "latitude": 39.55927, "badloc": false}, {"photo": "1111.png", "hometown": " MILLERS", "countyid": 13, "fname": "MICHAEL LOU", "lname": "KIDD", "hasphoto": true, "longitude": -76.85109, "county": "CARROLL", "recid": 592, "latitude": 39.67121, "badloc": false}, {"photo": "1111.png", "hometown": " UNION BRIDGE", "countyid": 13, "fname": "RUSSELL E", "lname": "MILBERRY", "hasphoto": true, "longitude": -77.17693, "county": "CARROLL", "recid": 663, "latitude": 39.56899, "badloc": false}, {"photo": "1111.png", "hometown": " WESTMINSTER", "countyid": 13, "fname": "CHRISTOPHER J J", "lname": "MILLER", "hasphoto": true, "longitude": null, "county": "CARROLL", "recid": 664, "latitude": null, "badloc": false}, {"photo": "1111.png", "hometown": " WESTMINSTER", "countyid": 13, "fname": "JOSEPH ANTHONY", "lname": "ORETO", "hasphoto": true, "longitude": null, "county": "CARROLL", "recid": 717, "latitude": null, "badloc": false}, {"photo": "1111.png", "hometown": " HAMPSTEAD", "countyid": 13, "fname": "DAVID NAYLOR", "lname": "STEGER", "hasphoto": true, "longitude": -76.85109, "county": "CARROLL", "recid": 909, "latitude": 39.61927, "badloc": false}, {"photo": "1111.png", "hometown": " SYKESVILLE", "countyid": 13, "fname": "FRANKLIN W JR", "lname": "UNDERWOOD", "hasphoto": true, "longitude": -76.96776, "county": "CARROLL", "recid": 953, "latitude": 39.37371, "badloc": false}], "countyid": 13}, {"casualties": [{"photo": "1111.png", "hometown": " PERRYVILLE", "countyid": 15, "fname": "DAVID NELSON", "lname": "CLAYTON", "hasphoto": true, "longitude": -76.07134, "county": "CECIL", "recid": 147, "latitude": 39.56011, "badloc": false}, {"photo": "1111.png", "hometown": " PORT DEPOSIT", "countyid": 15, "fname": "GREGORY SCOTT", "lname": "COPENHAVER", "hasphoto": true, "longitude": -76.11523, "county": "CECIL", "recid": 163, "latitude": 39.60483, "badloc": false}, {"photo": "1111.png", "hometown": " ELKTON", "countyid": 15, "fname": "MARSHALL FRANKLIN", "lname": "FRENG", "hasphoto": true, "longitude": -75.84077, "county": "CECIL", "recid": 272, "latitude": 39.59761, "badloc": false}, {"photo": "1111.png", "hometown": " ELKTON", "countyid": 15, "fname": "DONALD C JR", "lname": "MC ALLISTER", "hasphoto": true, "longitude": -75.84077, "county": "CECIL", "recid": 406, "latitude": 39.59761, "badloc": false}, {"photo": "1111.png", "hometown": " RISING SUN", "countyid": 15, "fname": "LEVI RAY", "lname": "REYNOLDS", "hasphoto": true, "longitude": -76.06273, "county": "CECIL", "recid": 777, "latitude": 39.69789, "badloc": false}, {"photo": "1111.png", "hometown": " ELKTON", "countyid": 15, "fname": "GEORGE", "lname": "ROBINSON", "hasphoto": true, "longitude": -75.84077, "county": "CECIL", "recid": 789, "latitude": 39.59761, "badloc": false}, {"photo": "1111.png", "hometown": " RISING SUN", "countyid": 15, "fname": "MICHAEL DUANE", "lname": "ROLFE", "hasphoto": true, "longitude": -76.06273, "county": "CECIL", "recid": 799, "latitude": 39.69789, "badloc": false}, {"photo": "1111.png", "hometown": " ELKTON", "countyid": 15, "fname": "THOMAS VALENTINE JR", "lname": "RUFF", "hasphoto": true, "longitude": -75.84077, "county": "CECIL", "recid": 810, "latitude": 39.59761, "badloc": false}, {"photo": "1111.png", "hometown": " PORT DEPOSIT", "countyid": 15, "fname": "MARION NEAL", "lname": "TAPP", "hasphoto": true, "longitude": -76.11523, "county": "CECIL", "recid": 914, "latitude": 39.60483, "badloc": false}], "countyid": 15}, {"casualties": [{"photo": "1111.png", "hometown": " LA PLATA", "countyid": 17, "fname": "FRANCIS DESALES", "lname": "WILLS", "hasphoto": true, "longitude": null, "county": "CHARLES", "recid": 1006, "latitude": null, "badloc": false}, {"photo": "1111.png", "hometown": " LA PLATA", "countyid": 17, "fname": "DAVID DE SALES", "lname": "WINKLER", "hasphoto": true, "longitude": null, "county": "CHARLES", "recid": 1017, "latitude": null, "badloc": false}, {"photo": "1111.png", "hometown": " INDIAN HEAD", "countyid": 17, "fname": "THOMAS S JR", "lname": "WOODLAND", "hasphoto": true, "longitude": -77.06081, "county": "CHARLES", "recid": 1027, "latitude": 38.6329, "badloc": false}, {"photo": "12.png", "hometown": " BENEDICT", "countyid": 17, "fname": "WILLIAM ALBERT", "lname": "ANDREWS", "hasphoto": true, "longitude": -76.67968, "county": "CHARLES", "recid": 12, "latitude": 38.50929, "badloc": false}, {"photo": "1111.png", "hometown": " BRYANS ROAD", "countyid": 17, "fname": "JOSEPH KENNETH", "lname": "CARROLL", "hasphoto": true, "longitude": -77.07303, "county": "CHARLES", "recid": 123, "latitude": 38.62706, "badloc": false}, {"photo": "1111.png", "hometown": " WHITE PLAINS", "countyid": 17, "fname": "JOHN CHARLES J", "lname": "DE MARR", "hasphoto": true, "longitude": -76.96409, "county": "CHARLES", "recid": 198, "latitude": 38.57853, "badloc": false}, {"photo": "30.png", "hometown": " INDIAN HEAD", "countyid": 17, "fname": "RONALD", "lname": "BAKER", "hasphoto": true, "longitude": -77.06081, "county": "CHARLES", "recid": 30, "latitude": 38.6329, "badloc": false}, {"photo": "1111.png", "hometown": " HUGHESVILLE", "countyid": 17, "fname": "JOHN ARTHUR", "lname": "GREENFIELD", "hasphoto": true, "longitude": -76.77997, "county": "CHARLES", "recid": 314, "latitude": 38.5229, "badloc": false}, {"photo": "1111.png", "hometown": " NANJEMOY", "countyid": 17, "fname": "DONALD MAURICE", "lname": "GUTRICK", "hasphoto": true, "longitude": -77.21692, "county": "CHARLES", "recid": 320, "latitude": 38.45484, "badloc": false}, {"photo": "1111.png", "hometown": " BRYANS ROAD", "countyid": 17, "fname": "RICHARD EDWARD", "lname": "HAYES", "hasphoto": true, "longitude": -77.07303, "county": "CHARLES", "recid": 333, "latitude": 38.62706, "badloc": false}, {"photo": "1111.png", "hometown": " INDIAN HEAD", "countyid": 17, "fname": "ROBERT ALBERT JR", "lname": "PAINTER", "hasphoto": true, "longitude": -77.06081, "county": "CHARLES", "recid": 725, "latitude": 38.6329, "badloc": false}, {"photo": "1111.png", "hometown": " WALDORF", "countyid": 17, "fname": "WADE HAMPTON", "lname": "ROLLINS", "hasphoto": true, "longitude": -76.93914, "county": "CHARLES", "recid": 800, "latitude": 38.62456, "badloc": false}, {"photo": "1111.png", "hometown": " LA PLATA", "countyid": 17, "fname": "ROBERT STEPHEN", "lname": "SHEGOGUE", "hasphoto": true, "longitude": null, "county": "CHARLES", "recid": 853, "latitude": null, "badloc": false}, {"photo": "1111.png", "hometown": "WALDORF", "countyid": 17, "fname": "CECIL RAY JR", "lname": "SMITH", "hasphoto": true, "longitude": -76.93914, "county": "CHARLES", "recid": 877, "latitude": 38.62456, "badloc": false}, {"photo": "1111.png", "hometown": " INDIAN HEAD", "countyid": 17, "fname": "RAYMOND NOVELL", "lname": "TAYLOR", "hasphoto": true, "longitude": -77.06081, "county": "CHARLES", "recid": 919, "latitude": 38.6329, "badloc": false}, {"photo": "96.png", "hometown": " LA PLATA", "countyid": 17, "fname": "DAVID BICKNEL", "lname": "BOWLING", "hasphoto": true, "longitude": null, "county": "CHARLES", "recid": 96, "latitude": null, "badloc": false}], "countyid": 17}, {"casualties": [{"photo": "1111.png", "hometown": " ROSS NECK", "countyid": 19, "fname": "WILLIAM CLARENCE", "lname": "DAYTON", "hasphoto": true, "longitude": null, "county": "DORCHESTER", "recid": 197, "latitude": null, "badloc": false}, {"photo": "1111.png", "hometown": " HURLOCK", "countyid": 19, "fname": "MICHAEL", "lname": "DIGENNO", "hasphoto": true, "longitude": -75.85438, "county": "DORCHESTER", "recid": 219, "latitude": 38.62428, "badloc": false}, {"photo": "1111.png", "hometown": " TAYLORS ISLAND", "countyid": 19, "fname": "CECIL RAYMOND", "lname": "JENKINS", "hasphoto": true, "longitude": -76.29911, "county": "DORCHESTER", "recid": 363, "latitude": 38.46901, "badloc": false}, {"photo": "1111.png", "hometown": " CAMBRIDGE", "countyid": 19, "fname": "EARL", "lname": "MACK", "hasphoto": true, "longitude": null, "county": "DORCHESTER", "recid": 386, "latitude": null, "badloc": false}, {"photo": "1111.png", "hometown": " CAMBRIDGE", "countyid": 19, "fname": "DERRICK", "lname": "SUDLER", "hasphoto": true, "longitude": null, "county": "DORCHESTER", "recid": 761, "latitude": null, "badloc": false}], "countyid": 19}, {"casualties": [{"photo": "1111.png", "hometown": " FREDERICK", "countyid": 21, "fname": "ROBERT LEROY", "lname": "WILLARD", "hasphoto": true, "longitude": -77.42165, "county": "FREDERICK", "recid": 1000, "latitude": 39.38621, "badloc": false}, {"photo": "1111.png", "hometown": " FREDERICK", "countyid": 21, "fname": "WILLIAM E JR", "lname": "ZIMMERMAN", "hasphoto": true, "longitude": -77.42165, "county": "FREDERICK", "recid": 1045, "latitude": 39.38621, "badloc": false}, {"photo": "1111.png", "hometown": " FREDERICK", "countyid": 21, "fname": "JAMES KENNETH", "lname": "CANIFORD", "hasphoto": true, "longitude": -77.42165, "county": "FREDERICK", "recid": 117, "latitude": 39.38621, "badloc": false}, {"photo": "1111.png", "hometown": " THURMONT", "countyid": 21, "fname": "WOODROW FRANKLIN", "lname": "CARBAUGH", "hasphoto": true, "longitude": -77.42554, "county": "FREDERICK", "recid": 121, "latitude": 39.60899, "badloc": false}, {"photo": "1111.png", "hometown": " FREDERICK", "countyid": 21, "fname": "WILSON LEE", "lname": "COOK", "hasphoto": true, "longitude": -77.42165, "county": "FREDERICK", "recid": 159, "latitude": 39.38621, "badloc": false}, {"photo": "1111.png", "hometown": " FREDERICK", "countyid": 21, "fname": "GARY WAYNE", "lname": "COSGROVE", "hasphoto": true, "longitude": -77.42165, "county": "FREDERICK", "recid": 165, "latitude": 39.38621, "badloc": false}, {"photo": "20.png", "hometown": " FREDERICK", "countyid": 21, "fname": "JAMES MITCHELL", "lname": "ATCHISON", "hasphoto": true, "longitude": -77.42165, "county": "FREDERICK", "recid": 20, "latitude": 39.38621, "badloc": false}, {"photo": "1111.png", "hometown": " FREDERICK", "countyid": 21, "fname": "JOHN WILLIAM", "lname": "GRASER", "hasphoto": true, "longitude": -77.42165, "county": "FREDERICK", "recid": 306, "latitude": 39.38621, "badloc": false}, {"photo": "1111.png", "hometown": " THURMONT", "countyid": 21, "fname": "CHARLES ROBERT", "lname": "PITTINGER", "hasphoto": true, "longitude": -77.42554, "county": "FREDERICK", "recid": 446, "latitude": 39.60899, "badloc": false}, {"photo": "447.jpg", "hometown": " FREDERICK", "countyid": 21, "fname": "JOHN FRANCIS", "lname": "PLUNKARD", "hasphoto": true, "longitude": -77.42165, "county": "FREDERICK", "recid": 447, "latitude": 39.38621, "badloc": false}, {"photo": "1111.png", "hometown": " FREDERICK", "countyid": 21, "fname": "CHARLES FRANK", "lname": "BRANDENBURG", "hasphoto": true, "longitude": -77.42165, "county": "FREDERICK", "recid": 473, "latitude": 39.38621, "badloc": false}, {"photo": "1111.png", "hometown": " WALKERSVILLE", "countyid": 21, "fname": "LARRY FRANKLIN", "lname": "BRASHEARS", "hasphoto": true, "longitude": -77.35193, "county": "FREDERICK", "recid": 476, "latitude": 39.48621, "badloc": false}, {"photo": "1111.png", "hometown": " FREDERICK", "countyid": 21, "fname": "MICHAEL LEON", "lname": "BREWER", "hasphoto": true, "longitude": -77.42165, "county": "FREDERICK", "recid": 479, "latitude": 39.38621, "badloc": false}, {"photo": "1111.png", "hometown": " FREDERICK", "countyid": 21, "fname": "DANIEL SPENSER", "lname": "BRITTAIN", "hasphoto": true, "longitude": -77.42165, "county": "FREDERICK", "recid": 484, "latitude": 39.38621, "badloc": false}, {"photo": "1111.png", "hometown": " BRUNSWICK", "countyid": 21, "fname": "CHARLES WALTER", "lname": "HARBERT", "hasphoto": true, "longitude": -77.62777, "county": "FREDERICK", "recid": 531, "latitude": 39.31427, "badloc": false}, {"photo": "1111.png", "hometown": " MYERSVILLE", "countyid": 21, "fname": "CLYDE STEVEN", "lname": "HIMES", "hasphoto": true, "longitude": -77.56638, "county": "FREDERICK", "recid": 547, "latitude": 39.5051, "badloc": false}, {"photo": "1111.png", "hometown": " MOUNT AIRY", "countyid": 21, "fname": "EVERETT EUGENE JR", "lname": "JUSTICE", "hasphoto": true, "longitude": -77.18804, "county": "FREDERICK", "recid": 580, "latitude": 39.39594, "badloc": false}, {"photo": "1111.png", "hometown": " MOUNT AIRY", "countyid": 21, "fname": "RONALD MICHAEL", "lname": "KENNY", "hasphoto": true, "longitude": -77.18804, "county": "FREDERICK", "recid": 588, "latitude": 39.39594, "badloc": false}, {"photo": "1111.png", "hometown": " FREDERICK", "countyid": 21, "fname": "HAROLD FRANKLIN", "lname": "KLINE", "hasphoto": true, "longitude": -77.42165, "county": "FREDERICK", "recid": 605, "latitude": 39.38621, "badloc": false}, {"photo": "1111.png", "hometown": " FREDERICK", "countyid": 21, "fname": "FRANKLIN JOSHUA JR", "lname": "KRANTZ", "hasphoto": true, "longitude": -77.42165, "county": "FREDERICK", "recid": 618, "latitude": 39.38621, "badloc": false}, {"photo": "1111.png", "hometown": " WALKERSVILLE", "countyid": 21, "fname": "KENNETH LIONEL", "lname": "KROM", "hasphoto": true, "longitude": -77.35193, "county": "FREDERICK", "recid": 620, "latitude": 39.48621, "badloc": false}, {"photo": "1111.png", "hometown": " IJAMSVILLE", "countyid": 21, "fname": "ROBERT HENRY", "lname": "LERNER", "hasphoto": true, "longitude": -77.32054, "county": "FREDERICK", "recid": 638, "latitude": 39.35316, "badloc": false}, {"photo": "656.jpg", "hometown": " WOODSBORO", "countyid": 21, "fname": "RICHARD WOODS", "lname": "MEEHAN", "hasphoto": true, "longitude": -77.31471, "county": "FREDERICK", "recid": 656, "latitude": 39.53316, "badloc": false}, {"photo": "1111.png", "hometown": " MOUNT AIRY", "countyid": 21, "fname": "HERBERT EUGENE JR", "lname": "MULKEY", "hasphoto": true, "longitude": -77.18804, "county": "FREDERICK", "recid": 690, "latitude": 39.39594, "badloc": false}, {"photo": "1111.png", "hometown": " FREDERICK", "countyid": 21, "fname": "ROBERT EARL JR", "lname": "SMITH", "hasphoto": true, "longitude": -77.42165, "county": "FREDERICK", "recid": 885, "latitude": 39.38621, "badloc": false}, {"photo": "9.png", "hometown": " MOUNT AIRY", "countyid": 21, "fname": "RUSSELL MONROE", "lname": "AMOSS", "hasphoto": true, "longitude": -77.18804, "county": "FREDERICK", "recid": 9, "latitude": 39.39594, "badloc": false}, {"photo": "1111.png", "hometown": " FREDERICK", "countyid": 21, "fname": "STEPHEN EUGENE", "lname": "SROKA", "hasphoto": true, "longitude": -77.42165, "county": "FREDERICK", "recid": 903, "latitude": 39.38621, "badloc": false}], "countyid": 21}, {"casualties": [{"photo": "1111.png", "hometown": "FRIENDSVILLE", "countyid": 23, "fname": "RODGER LYNN", "lname": "GARLICK", "hasphoto": true, "longitude": -79.40532, "county": "GARRETT", "recid": 279, "latitude": 39.66369, "badloc": false}, {"photo": "1111.png", "hometown": " FRIENDSVILLE", "countyid": 23, "fname": "ROSS FRANCIS", "lname": "FIKE", "hasphoto": true, "longitude": -79.40532, "county": "GARRETT", "recid": 519, "latitude": 39.66369, "badloc": false}, {"photo": "1111.png", "hometown": " FRIENDSVILLE", "countyid": 23, "fname": "THOMAS EUGENE", "lname": "FIKE", "hasphoto": true, "longitude": -79.40532, "county": "GARRETT", "recid": 520, "latitude": 39.66369, "badloc": false}, {"photo": "1111.png", "hometown": " FRIENDSVILLE", "countyid": 23, "fname": "CHARLES WAYNE", "lname": "HOOK", "hasphoto": true, "longitude": -79.40532, "county": "GARRETT", "recid": 559, "latitude": 39.66369, "badloc": false}, {"photo": "1111.png", "hometown": " FRIENDSVILLE", "countyid": 23, "fname": "DANNY EUGENE", "lname": "NICKLOW", "hasphoto": true, "longitude": -79.40532, "county": "GARRETT", "recid": 702, "latitude": 39.66369, "badloc": false}, {"photo": "1111.png", "hometown": " SWANTON", "countyid": 23, "fname": "CURTIS ALLEN", "lname": "RHODES", "hasphoto": true, "longitude": -79.23087, "county": "GARRETT", "recid": 779, "latitude": 39.45898, "badloc": false}, {"photo": "1111.png", "hometown": " OAKLAND", "countyid": 23, "fname": "THOMAS EDWARD", "lname": "SIRBAUGH", "hasphoto": true, "longitude": null, "county": "GARRETT", "recid": 866, "latitude": null, "badloc": false}, {"photo": "1111.png", "hometown": " DEER PARK", "countyid": 23, "fname": "KENNETH EARL", "lname": "TASKER", "hasphoto": true, "longitude": -79.32504, "county": "GARRETT", "recid": 915, "latitude": 39.42371, "badloc": false}], "countyid": 23}, {"casualties": [{"photo": "1111.png", "hometown": " BEL AIR", "countyid": 25, "fname": "MONTY NORRIS", "lname": "WILSON", "hasphoto": true, "longitude": -76.31977, "county": "HARFORD", "recid": 1012, "latitude": 39.50506, "badloc": false}, {"photo": "1111.png", "hometown": " STREET", "countyid": 25, "fname": "EDWARD JOSEPH", "lname": "WISE", "hasphoto": true, "longitude": -76.37941, "county": "HARFORD", "recid": 1021, "latitude": 39.66899, "badloc": false}, {"photo": "1111.png", "hometown": " ABERDEEN", "countyid": 25, "fname": "GERALD LEE", "lname": "CALL", "hasphoto": true, "longitude": -76.13066, "county": "HARFORD", "recid": 109, "latitude": 39.46686, "badloc": false}, {"photo": "1111.png", "hometown": " BEL AIR", "countyid": 25, "fname": "OSCAR EDMOND", "lname": "COOPER", "hasphoto": true, "longitude": -76.31977, "county": "HARFORD", "recid": 161, "latitude": 39.50506, "badloc": false}, {"photo": "1111.png", "hometown": " JOPPA", "countyid": 25, "fname": "WILLIAM JENNINGS", "lname": "CORBIN", "hasphoto": true, "longitude": -76.35524, "county": "HARFORD", "recid": 164, "latitude": 39.45789, "badloc": false}, {"photo": "1111.png", "hometown": " CHURCHVILLE", "countyid": 25, "fname": "GEORGE ALLEN", "lname": "DEMBY", "hasphoto": true, "longitude": -76.24551, "county": "HARFORD", "recid": 209, "latitude": 39.56122, "badloc": false}, {"photo": "1111.png", "hometown": "NORRISVILLE", "countyid": 25, "fname": "ROBERT L", "lname": "DEVOE", "hasphoto": true, "longitude": -76.53469, "county": "HARFORD", "recid": 212, "latitude": 39.70483, "badloc": false}, {"photo": "1111.png", "hometown": " HAVRE DE GRACE", "countyid": 25, "fname": "FRANKLIN BRADLEY", "lname": "GILBERT", "hasphoto": true, "longitude": -76.09162, "county": "HARFORD", "recid": 288, "latitude": 39.54928, "badloc": false}, {"photo": "1111.png", "hometown": " DARLINGTON", "countyid": 25, "fname": "THOMAS CARR JEFFER", "lname": "HUBARD", "hasphoto": true, "longitude": -76.24002, "county": "HARFORD", "recid": 343, "latitude": 39.64859, "badloc": false}, {"photo": "1111.png", "hometown": " EDGEWOOD", "countyid": 25, "fname": "CHARLES ANTHONY", "lname": "JAMACK", "hasphoto": true, "longitude": -76.30579, "county": "HARFORD", "recid": 359, "latitude": 39.4265, "badloc": false}, {"photo": "1111.png", "hometown": " HAVRE DE GRACE", "countyid": 25, "fname": "STANLEY EUGENE", "lname": "MC CREARY", "hasphoto": true, "longitude": -76.09162, "county": "HARFORD", "recid": 412, "latitude": 39.54928, "badloc": false}, {"photo": "1111.png", "hometown": " ABERDEEN", "countyid": 25, "fname": "THOMAS EUGENE", "lname": "PRITT", "hasphoto": true, "longitude": -76.13066, "county": "HARFORD", "recid": 462, "latitude": 39.46686, "badloc": false}, {"photo": "1111.png", "hometown": " HAVRE DE GRACE", "countyid": 25, "fname": "RAYMOND R JR", "lname": "HITCHCOCK", "hasphoto": true, "longitude": -76.09162, "county": "HARFORD", "recid": 549, "latitude": 39.54928, "badloc": false}, {"photo": "1111.png", "hometown": " BEL AIR", "countyid": 25, "fname": "WILLIAM FRANK", "lname": "JOHNSON", "hasphoto": true, "longitude": -76.31977, "county": "HARFORD", "recid": 567, "latitude": 39.50506, "badloc": false}, {"photo": "58.png", "hometown": " WHITE HALL", "countyid": 25, "fname": "RONALD JOHN III", "lname": "BENKE", "hasphoto": true, "longitude": null, "county": "HARFORD", "recid": 58, "latitude": null, "badloc": false}, {"photo": "1111.png", "hometown": " BELCAMP", "countyid": 25, "fname": "CHARLES HUGH JR", "lname": "LEWIS", "hasphoto": true, "longitude": -76.23329, "county": "HARFORD", "recid": 641, "latitude": 39.469, "badloc": false}, {"photo": "1111.png", "hometown": " HAVRE DE GRACE", "countyid": 25, "fname": "ROGER BERTHA", "lname": "MILLS", "hasphoto": true, "longitude": -76.09162, "county": "HARFORD", "recid": 668, "latitude": 39.54928, "badloc": false}, {"photo": "1111.png", "hometown": " ABERDEEN", "countyid": 25, "fname": "JOHN DENNIS", "lname": "MORRISSEY", "hasphoto": true, "longitude": -76.13066, "county": "HARFORD", "recid": 680, "latitude": 39.46686, "badloc": false}, {"photo": "720.jpg", "hometown": " STREET", "countyid": 25, "fname": "DONALD GWYN", "lname": "OSBORNE", "hasphoto": true, "longitude": -76.37941, "county": "HARFORD", "recid": 720, "latitude": 39.66899, "badloc": false}, {"photo": "1111.png", "hometown": " CARDIFF", "countyid": 25, "fname": "CHARLES THOMAS", "lname": "STEINER", "hasphoto": true, "longitude": -76.33774, "county": "HARFORD", "recid": 741, "latitude": 39.71733, "badloc": false}, {"photo": "1111.png", "hometown": " WHITEFORD", "countyid": 25, "fname": "KENNETH ALAN", "lname": "STEWART", "hasphoto": true, "longitude": -76.34552, "county": "HARFORD", "recid": 749, "latitude": 39.70899, "badloc": false}, {"photo": "1111.png", "hometown": " HAVRE DE GRACE", "countyid": 25, "fname": "LAWRENCE L JR", "lname": "RINGGOLD", "hasphoto": true, "longitude": -76.09162, "county": "HARFORD", "recid": 783, "latitude": 39.54928, "badloc": false}, {"photo": "1111.png", "hometown": " STREET", "countyid": 25, "fname": "LARRY LEE", "lname": "ROBINSON", "hasphoto": true, "longitude": -76.37941, "county": "HARFORD", "recid": 790, "latitude": 39.66899, "badloc": false}, {"photo": "1111.png", "hometown": " ABERDEEN", "countyid": 25, "fname": "CHARLES NIVEN", "lname": "RUDD", "hasphoto": true, "longitude": -76.13066, "county": "HARFORD", "recid": 809, "latitude": 39.46686, "badloc": false}, {"photo": "831.jpg", "hometown": " BEL AIR", "countyid": 25, "fname": "GARY RAY", "lname": "SCHAFER", "hasphoto": true, "longitude": -76.31977, "county": "HARFORD", "recid": 831, "latitude": 39.50506, "badloc": false}, {"photo": "1111.png", "hometown": " BEL AIR", "countyid": 25, "fname": "ROY EDWARD", "lname": "SHANKLIN", "hasphoto": true, "longitude": -76.31977, "county": "HARFORD", "recid": 850, "latitude": 39.50506, "badloc": false}, {"photo": "1111.png", "hometown": " BEL AIR", "countyid": 25, "fname": "MAXIMILIAN HEINRICH", "lname": "SIMMETH", "hasphoto": true, "longitude": -76.31977, "county": "HARFORD", "recid": 863, "latitude": 39.50506, "badloc": false}, {"photo": "1111.png", "hometown": " HAVRE DE GRACE", "countyid": 25, "fname": "RONALD ANTHONY", "lname": "SPUDIS", "hasphoto": true, "longitude": -76.09162, "county": "HARFORD", "recid": 901, "latitude": 39.54928, "badloc": false}, {"photo": "1111.png", "hometown": " EDGEWOOD", "countyid": 25, "fname": "MARK FRANCIS", "lname": "TEARL", "hasphoto": true, "longitude": -76.30579, "county": "HARFORD", "recid": 922, "latitude": 39.4265, "badloc": false}, {"photo": "1111.png", "hometown": " CHURCHVILLE", "countyid": 25, "fname": "LARRY LEE", "lname": "TOLLIVER", "hasphoto": true, "longitude": -76.24551, "county": "HARFORD", "recid": 938, "latitude": 39.56122, "badloc": false}, {"photo": "1111.png", "hometown": " JOPPA", "countyid": 25, "fname": "JOSEPH MICHAEL", "lname": "VAN DANIKER", "hasphoto": true, "longitude": -76.35524, "county": "HARFORD", "recid": 955, "latitude": 39.45789, "badloc": false}, {"photo": "1111.png", "hometown": " ABERDEEN", "countyid": 25, "fname": "WILLIE ROSS", "lname": "VARNEY", "hasphoto": true, "longitude": -76.13066, "county": "HARFORD", "recid": 956, "latitude": 39.46686, "badloc": false}, {"photo": "1111.png", "hometown": "BEL AIR", "countyid": 25, "fname": "CLAUDE L R", "lname": "VIAR", "hasphoto": true, "longitude": -76.31977, "county": "HARFORD", "recid": 959, "latitude": 39.50506, "badloc": false}], "countyid": 25}, {"casualties": [{"photo": "1111.png", "hometown": " JESSUP", "countyid": 27, "fname": "THOMAS OWEN", "lname": "GREEN", "hasphoto": true, "longitude": null, "county": "HOWARD", "recid": 312, "latitude": null, "badloc": false}, {"photo": "4.png", "hometown": " CLARKSVILLE", "countyid": 27, "fname": "STEPHEN HAMILTON", "lname": "ADAMS", "hasphoto": true, "longitude": -76.9122, "county": "HOWARD", "recid": 4, "latitude": 39.18455, "badloc": false}, {"photo": "435.jpg", "hometown": " ELLICOTT CITY", "countyid": 27, "fname": "DAVID BURTON", "lname": "PEGG", "hasphoto": true, "longitude": null, "county": "HOWARD", "recid": 435, "latitude": null, "badloc": false}, {"photo": "1111.png", "hometown": " SAVAGE", "countyid": 27, "fname": "ROBERT LEE JR", "lname": "POSEY", "hasphoto": true, "longitude": -76.82681, "county": "HOWARD", "recid": 449, "latitude": 39.14813, "badloc": false}, {"photo": "1111.png", "hometown": " ELLICOTT CITY", "countyid": 27, "fname": "HARRY SAMUEL JR", "lname": "FITEZ", "hasphoto": true, "longitude": null, "county": "HOWARD", "recid": 522, "latitude": null, "badloc": false}, {"photo": "1111.png", "hometown": " ELLICOTT CITY", "countyid": 27, "fname": "GARY W", "lname": "HANNA", "hasphoto": true, "longitude": null, "county": "HOWARD", "recid": 530, "latitude": null, "badloc": false}, {"photo": "1111.png", "hometown": " ELLICOTT CITY", "countyid": 27, "fname": "THOMAS WOODROW", "lname": "MOORE", "hasphoto": true, "longitude": null, "county": "HOWARD", "recid": 676, "latitude": null, "badloc": false}, {"photo": "1111.png", "hometown": " ELLICOTT CITY", "countyid": 27, "fname": "RAYMOND ORITIZ", "lname": "NOVOSOD", "hasphoto": true, "longitude": null, "county": "HOWARD", "recid": 713, "latitude": null, "badloc": false}, {"photo": "937.jpg", "hometown": " HIGHLAND", "countyid": 27, "fname": "DONALD ROBERT", "lname": "TITUS", "hasphoto": true, "longitude": -76.96914, "county": "HOWARD", "recid": 937, "latitude": 39.18983, "badloc": false}], "countyid": 27}, {"casualties": [{"photo": "1111.png", "hometown": " GOLTS", "countyid": 29, "fname": "VIRGIL HENRY JR", "lname": "WILSON", "hasphoto": true, "longitude": -75.77466, "county": "KENT", "recid": 1013, "latitude": 39.33678, "badloc": false}, {"photo": "1111.png", "hometown": " BETTERTON", "countyid": 29, "fname": "CARL JOSEPH", "lname": "CREW", "hasphoto": true, "longitude": -76.06217, "county": "KENT", "recid": 174, "latitude": 39.36595, "badloc": false}, {"photo": "1111.png", "hometown": " GALENA", "countyid": 29, "fname": "ROBERT JULIAN JR", "lname": "DAVIS", "hasphoto": true, "longitude": -75.87883, "county": "KENT", "recid": 516, "latitude": 39.34067, "badloc": false}], "countyid": 29}, {"casualties": [{"photo": "1.jpg", "hometown": " ROCKVILLE", "countyid": 31, "fname": "ROBERT WILLIAM", "lname": "ERNATHY", "hasphoto": true, "longitude": null, "county": "MONTGOMERY", "recid": 1, "latitude": null, "badloc": false}, {"photo": "1111.png", "hometown": " ROCKVILLE", "countyid": 31, "fname": "LORNE JOHN", "lname": "WILSON", "hasphoto": true, "longitude": null, "county": "MONTGOMERY", "recid": 1011, "latitude": null, "badloc": false}, {"photo": "1111.png", "hometown": " SILVER SPRING", "countyid": 31, "fname": "TERRY", "lname": "WINTERMOYER", "hasphoto": true, "longitude": -77.0197, "county": "MONTGOMERY", "recid": 1020, "latitude": 38.99344, "badloc": false}, {"photo": "1111.png", "hometown": " SILVER SPRING", "countyid": 31, "fname": "LARRY ALBERT", "lname": "WOODBURN", "hasphoto": true, "longitude": -77.0197, "county": "MONTGOMERY", "recid": 1026, "latitude": 38.99344, "badloc": false}, {"photo": "1111.png", "hometown": " SILVER SPRING", "countyid": 31, "fname": "CHARLES GILMAN JR", "lname": "BUTLER", "hasphoto": true, "longitude": -77.0197, "county": "MONTGOMERY", "recid": 103, "latitude": 38.99344, "badloc": false}, {"photo": "1111.png", "hometown": " POTOMAC", "countyid": 31, "fname": "JOHN HENRY III", "lname": "CALL", "hasphoto": true, "longitude": -77.21226, "county": "MONTGOMERY", "recid": 110, "latitude": 39.03144, "badloc": false}, {"photo": "1111.png", "hometown": " WHEATON", "countyid": 31, "fname": "FRANCIS EDWARD JR", "lname": "CAMDEN", "hasphoto": true, "longitude": -77.05269, "county": "MONTGOMERY", "recid": 111, "latitude": 39.05762, "badloc": false}, {"photo": "1111.png", "hometown": " SILVER SPRING", "countyid": 31, "fname": "DARRELL EDWARD", "lname": "CAMPANELLO", "hasphoto": true, "longitude": -77.0197, "county": "MONTGOMERY", "recid": 113, "latitude": 38.99344, "badloc": false}, {"photo": "1111.png", "hometown": " ROCKVILLE", "countyid": 31, "fname": "JOHN ALAN", "lname": "CAPASSO", "hasphoto": true, "longitude": null, "county": "MONTGOMERY", "recid": 120, "latitude": null, "badloc": false}, {"photo": "122.png", "hometown": " WHEATON", "countyid": 31, "fname": "ROBERT MATTHEW", "lname": "CARLOZZI", "hasphoto": true, "longitude": -77.05269, "county": "MONTGOMERY", "recid": 122, "latitude": 39.05762, "badloc": false}, {"photo": "1111.png", "hometown": " POTOMAC", "countyid": 31, "fname": "LEWIS EDGAR JR", "lname": "CASNER", "hasphoto": true, "longitude": -77.21226, "county": "MONTGOMERY", "recid": 129, "latitude": 39.03144, "badloc": false}, {"photo": "1111.png", "hometown": " GAITHERSBURG", "countyid": 31, "fname": "WILLIAM J III", "lname": "CHRISTMAN", "hasphoto": true, "longitude": -77.20137, "county": "MONTGOMERY", "recid": 143, "latitude": 39.14344, "badloc": false}, {"photo": "1111.png", "hometown": " OLNEY", "countyid": 31, "fname": "LARRY MONROE", "lname": "CLARK", "hasphoto": true, "longitude": -77.06803, "county": "MONTGOMERY", "recid": 146, "latitude": 39.15788, "badloc": false}, {"photo": "1111.png", "hometown": " SILVER SPRING", "countyid": 31, "fname": "ERNEST WESLEY", "lname": "COLE", "hasphoto": true, "longitude": -77.0197, "county": "MONTGOMERY", "recid": 150, "latitude": 38.99344, "badloc": false}, {"photo": "166.png", "hometown": " CHEVY CHASE", "countyid": 31, "fname": "JEREMIAH FREDERICK", "lname": "COSTELLO", "hasphoto": true, "longitude": -77.07887, "county": "MONTGOMERY", "recid": 166, "latitude": 38.96928, "badloc": false}, {"photo": "1111.png", "hometown": " SILVER SPRING", "countyid": 31, "fname": "KEVIN MARK", "lname": "COYNE", "hasphoto": true, "longitude": -77.0197, "county": "MONTGOMERY", "recid": 170, "latitude": 38.99344, "badloc": false}, {"photo": "1111.png", "hometown": " ROCKVILLE", "countyid": 31, "fname": "GERALD LEE", "lname": "CROSBY", "hasphoto": true, "longitude": null, "county": "MONTGOMERY", "recid": 177, "latitude": null, "badloc": false}, {"photo": "1111.png", "hometown": " BETHESDA", "countyid": 31, "fname": "JAMES R JR", "lname": "CUMBERPATCH", "hasphoto": true, "longitude": -77.10026, "county": "MONTGOMERY", "recid": 182, "latitude": 38.98067, "badloc": false}, {"photo": "1111.png", "hometown": " SPENCERVILLE", "countyid": 31, "fname": "RICHARD SAVAGE", "lname": "CUNNINGHAM", "hasphoto": true, "longitude": -76.97192, "county": "MONTGOMERY", "recid": 183, "latitude": 39.1215, "badloc": false}, {"photo": "1111.png", "hometown": " WHEATON", "countyid": 31, "fname": "HENRY DAVID", "lname": "CUSTEN", "hasphoto": true, "longitude": -77.05269, "county": "MONTGOMERY", "recid": 186, "latitude": 39.05762, "badloc": false}, {"photo": "1111.png", "hometown": " ROCKVILLE", "countyid": 31, "fname": "KENNETH JULIAN", "lname": "CYMBALSKI", "hasphoto": true, "longitude": null, "county": "MONTGOMERY", "recid": 187, "latitude": null, "badloc": false}, {"photo": "1111.png", "hometown": " GAITHERSBURG", "countyid": 31, "fname": "CHARLES RICHARD", "lname": "DALE", "hasphoto": true, "longitude": -77.20137, "county": "MONTGOMERY", "recid": 190, "latitude": 39.14344, "badloc": false}, {"photo": "203.jpg", "hometown": " CHEVY CHASE", "countyid": 31, "fname": "PATRICK A JR", "lname": "DECK", "hasphoto": true, "longitude": -77.07887, "county": "MONTGOMERY", "recid": 203, "latitude": 38.96928, "badloc": false}, {"photo": "217.jpg", "hometown": " ROCKVILLE", "countyid": 31, "fname": "TOMMY EUGENE", "lname": "DICKERSON", "hasphoto": true, "longitude": null, "county": "MONTGOMERY", "recid": 217, "latitude": null, "badloc": false}, {"photo": "1111.png", "hometown": " SILVER SPRING", "countyid": 31, "fname": "CARROLL STEPHEN", "lname": "DIEUDONNE", "hasphoto": true, "longitude": -77.0197, "county": "MONTGOMERY", "recid": 218, "latitude": 38.99344, "badloc": false}, {"photo": "1111.png", "hometown": " DICKERSON", "countyid": 31, "fname": "ROBERT DANIEL", "lname": "DONALDSON", "hasphoto": true, "longitude": -77.42415, "county": "MONTGOMERY", "recid": 227, "latitude": 39.2201, "badloc": false}, {"photo": "234.jpg", "hometown": " KENSINGTON", "countyid": 31, "fname": "WALTER LLOYD", "lname": "DROSD", "hasphoto": true, "longitude": -77.0597, "county": "MONTGOMERY", "recid": 234, "latitude": 39.03983, "badloc": false}, {"photo": "1111.png", "hometown": " BETHESDA", "countyid": 31, "fname": "BRUCE CHALMERS", "lname": "DUCAT", "hasphoto": true, "longitude": -77.10026, "county": "MONTGOMERY", "recid": 235, "latitude": 38.98067, "badloc": false}, {"photo": "1111.png", "hometown": " TAKOMA PARK", "countyid": 31, "fname": "LESLIE MILTON JR", "lname": "DYSON", "hasphoto": true, "longitude": -77.00748, "county": "MONTGOMERY", "recid": 242, "latitude": 38.97789, "badloc": false}, {"photo": "250.jpg", "hometown": " GLEN ECHO", "countyid": 31, "fname": "GEORGE LEMUEL", "lname": "ELLIS", "hasphoto": true, "longitude": -77.12581, "county": "MONTGOMERY", "recid": 250, "latitude": 38.95844, "badloc": false}, {"photo": "264.jpg", "hometown": " CHEVY CHASE", "countyid": 31, "fname": "CHARLES LAWRENCE", "lname": "FLOTT", "hasphoto": true, "longitude": -77.07887, "county": "MONTGOMERY", "recid": 264, "latitude": 38.96928, "badloc": false}, {"photo": "1111.png", "hometown": " GAITHERSBURG", "countyid": 31, "fname": "CLAYTON EUGENE", "lname": "FRALEY", "hasphoto": true, "longitude": -77.20137, "county": "MONTGOMERY", "recid": 270, "latitude": 39.14344, "badloc": false}, {"photo": "1111.png", "hometown": " SILVER SPRING", "countyid": 31, "fname": "ROBERT MICHAEL", "lname": "GAFFIGAN", "hasphoto": true, "longitude": -77.0197, "county": "MONTGOMERY", "recid": 275, "latitude": 38.99344, "badloc": false}, {"photo": "1111.png", "hometown": " WHEATON", "countyid": 31, "fname": "ROBERT WAYNE", "lname": "GARDNER", "hasphoto": true, "longitude": -77.05269, "county": "MONTGOMERY", "recid": 277, "latitude": 39.05762, "badloc": false}, {"photo": "1111.png", "hometown": " SILVER SPRING", "countyid": 31, "fname": "STEPHEN JONATHAN", "lname": "GEIST", "hasphoto": true, "longitude": -77.0197, "county": "MONTGOMERY", "recid": 282, "latitude": 38.99344, "badloc": false}, {"photo": "1111.png", "hometown": " ROCKVILLE", "countyid": 31, "fname": "ROBERT ROXBURGH", "lname": "GROOM", "hasphoto": true, "longitude": null, "county": "MONTGOMERY", "recid": 317, "latitude": null, "badloc": false}, {"photo": "1111.png", "hometown": " ROCKVILLE", "countyid": 31, "fname": "JAMES BUCKNER", "lname": "HALL", "hasphoto": true, "longitude": null, "county": "MONTGOMERY", "recid": 322, "latitude": null, "badloc": false}, {"photo": "1111.png", "hometown": " ROCKVILLE", "countyid": 31, "fname": "STEVE WESTLEL", "lname": "HARRIS", "hasphoto": true, "longitude": null, "county": "MONTGOMERY", "recid": 325, "latitude": null, "badloc": false}, {"photo": "1111.png", "hometown": " WHEATON", "countyid": 31, "fname": "DAVID MELDRUM", "lname": "HART", "hasphoto": true, "longitude": -77.05269, "county": "MONTGOMERY", "recid": 327, "latitude": 39.05762, "badloc": false}, {"photo": "1111.png", "hometown": " SILVER SPRING", "countyid": 31, "fname": "EUGENE WINFIELD", "lname": "HARTMAN", "hasphoto": true, "longitude": -77.0197, "county": "MONTGOMERY", "recid": 328, "latitude": 38.99344, "badloc": false}, {"photo": "34.png", "hometown": " SILVER SPRING", "countyid": 31, "fname": "FREDERICK ALLEN", "lname": "BARCLAY", "hasphoto": true, "longitude": -77.0197, "county": "MONTGOMERY", "recid": 34, "latitude": 38.99344, "badloc": false}, {"photo": "36.png", "hometown": " SILVER SPRING", "countyid": 31, "fname": "HAROLD EDWARD", "lname": "BARNARD", "hasphoto": true, "longitude": -77.0197, "county": "MONTGOMERY", "recid": 36, "latitude": 38.99344, "badloc": false}, {"photo": "1111.png", "hometown": " SILVER SPRING", "countyid": 31, "fname": "JAMES EDWARD", "lname": "LOVE", "hasphoto": true, "longitude": -77.0197, "county": "MONTGOMERY", "recid": 374, "latitude": 38.99344, "badloc": false}, {"photo": "1111.png", "hometown": " SILVER SPRING", "countyid": 31, "fname": "WAYNE THOMAS", "lname": "LUNDELL", "hasphoto": true, "longitude": -77.0197, "county": "MONTGOMERY", "recid": 379, "latitude": 38.99344, "badloc": false}, {"photo": "1111.png", "hometown": " ROCKVILLE", "countyid": 31, "fname": "BALFOUR OLIVER JR", "lname": "LYTTON", "hasphoto": true, "longitude": null, "county": "MONTGOMERY", "recid": 381, "latitude": null, "badloc": false}, {"photo": "1111.png", "hometown": " TAKOMA PARK", "countyid": 31, "fname": "NEIL KIRK", "lname": "MAC IVER", "hasphoto": true, "longitude": -77.00748, "county": "MONTGOMERY", "recid": 382, "latitude": 38.97789, "badloc": false}, {"photo": "1111.png", "hometown": " SILVER SPRING", "countyid": 31, "fname": "THEODORE EDWARD JR", "lname": "MANGUM", "hasphoto": true, "longitude": -77.0197, "county": "MONTGOMERY", "recid": 391, "latitude": 38.99344, "badloc": false}, {"photo": "1111.png", "hometown": " SILVER SPRING", "countyid": 31, "fname": "HAROLD DOUGLAS", "lname": "MARTIN", "hasphoto": true, "longitude": -77.0197, "county": "MONTGOMERY", "recid": 395, "latitude": 38.99344, "badloc": false}, {"photo": "1111.png", "hometown": " ROCKVILLE", "countyid": 31, "fname": "ROBERT DAVID", "lname": "MASON", "hasphoto": true, "longitude": null, "county": "MONTGOMERY", "recid": 399, "latitude": null, "badloc": false}, {"photo": "1111.png", "hometown": " CHEVY CHASE", "countyid": 31, "fname": "THOMAS WELLER", "lname": "MC CARTHY", "hasphoto": true, "longitude": -77.07887, "county": "MONTGOMERY", "recid": 409, "latitude": 38.96928, "badloc": false}, {"photo": "1111.png", "hometown": " SILVER SPRING", "countyid": 31, "fname": "JOHN ARTHUR", "lname": "MC GINN", "hasphoto": true, "longitude": -77.0197, "county": "MONTGOMERY", "recid": 416, "latitude": 38.99344, "badloc": false}, {"photo": "1111.png", "hometown": " SILVER SPRING", "countyid": 31, "fname": "WILLIAM LEWIS", "lname": "MC GOWAN", "hasphoto": true, "longitude": -77.0197, "county": "MONTGOMERY", "recid": 418, "latitude": 38.99344, "badloc": false}, {"photo": "1111.png", "hometown": " ROCKVILLE", "countyid": 31, "fname": "ERNEST", "lname": "POSTORINO", "hasphoto": true, "longitude": null, "county": "MONTGOMERY", "recid": 450, "latitude": null, "badloc": false}, {"photo": "1111.png", "hometown": " GAITHERSBURG", "countyid": 31, "fname": "JAMES W", "lname": "PRATHER", "hasphoto": true, "longitude": -77.20137, "county": "MONTGOMERY", "recid": 456, "latitude": 39.14344, "badloc": false}, {"photo": "1111.png", "hometown": " SILVER SPRING", "countyid": 31, "fname": "RICHARD BERT", "lname": "BRUCE", "hasphoto": true, "longitude": -77.0197, "county": "MONTGOMERY", "recid": 497, "latitude": 38.99344, "badloc": false}, {"photo": "1111.png", "hometown": " GARRETT PARK", "countyid": 31, "fname": "LANCE DUNHAM", "lname": "BRUNSON", "hasphoto": true, "longitude": -77.10276, "county": "MONTGOMERY", "recid": 498, "latitude": 39.03705, "badloc": false}, {"photo": "53.png", "hometown": " ROCKVILLE", "countyid": 31, "fname": "MARTIN JOHN", "lname": "BEGOSH", "hasphoto": true, "longitude": null, "county": "MONTGOMERY", "recid": 53, "latitude": null, "badloc": false}, {"photo": "1111.png", "hometown": " SILVER SPRING", "countyid": 31, "fname": "TERRIN DINSMORE", "lname": "HICKS", "hasphoto": true, "longitude": -77.0197, "county": "MONTGOMERY", "recid": 541, "latitude": 38.99344, "badloc": false}, {"photo": "1111.png", "hometown": " ROCKVILLE", "countyid": 31, "fname": "ROBERT M", "lname": "HIGGINBOTHAM", "hasphoto": true, "longitude": null, "county": "MONTGOMERY", "recid": 542, "latitude": null, "badloc": false}, {"photo": "551.JPG", "hometown": " CHEVY CHASE", "countyid": 31, "fname": "DAVID LAWTON", "lname": "HODGES", "hasphoto": true, "longitude": -77.07887, "county": "MONTGOMERY", "recid": 551, "latitude": 38.96928, "badloc": false}, {"photo": "552.jpg", "hometown": " SILVER SPRING", "countyid": 31, "fname": "WILLIAM JEFFREY", "lname": "HODGES", "hasphoto": true, "longitude": -77.0197, "county": "MONTGOMERY", "recid": 552, "latitude": 38.99344, "badloc": false}, {"photo": "1111.png", "hometown": " WHEATON", "countyid": 31, "fname": "WILLIAM KENIS", "lname": "HOPKINS", "hasphoto": true, "longitude": -77.05269, "county": "MONTGOMERY", "recid": 563, "latitude": 39.05762, "badloc": false}, {"photo": "1111.png", "hometown": " BETHESDA", "countyid": 31, "fname": "JOHN MULLEN", "lname": "JOYCE", "hasphoto": true, "longitude": -77.10026, "county": "MONTGOMERY", "recid": 578, "latitude": 38.98067, "badloc": false}, {"photo": "1111.png", "hometown": " BETHESDA", "countyid": 31, "fname": "JON ALBERT", "lname": "JULIA", "hasphoto": true, "longitude": -77.10026, "county": "MONTGOMERY", "recid": 579, "latitude": 38.98067, "badloc": false}, {"photo": "1111.png", "hometown": " SILVER SPRING", "countyid": 31, "fname": "WAYNE ARNOLD", "lname": "KELLER", "hasphoto": true, "longitude": -77.0197, "county": "MONTGOMERY", "recid": 584, "latitude": 38.99344, "badloc": false}, {"photo": "1111.png", "hometown": " POTOMAC", "countyid": 31, "fname": "ANTHONY KONSTANT", "lname": "KERCOUDE", "hasphoto": true, "longitude": -77.21226, "county": "MONTGOMERY", "recid": 589, "latitude": 39.03144, "badloc": false}, {"photo": "1111.png", "hometown": " SILVER SPRING", "countyid": 31, "fname": "THOMAS EDWARD JR", "lname": "KESSING", "hasphoto": true, "longitude": -77.0197, "county": "MONTGOMERY", "recid": 591, "latitude": 38.99344, "badloc": false}, {"photo": "1111.png", "hometown": " DERWOOD", "countyid": 31, "fname": "HAROLD JUNIOR JR", "lname": "KING", "hasphoto": true, "longitude": -77.16109, "county": "MONTGOMERY", "recid": 598, "latitude": 39.11733, "badloc": false}, {"photo": "1111.png", "hometown": " BETHESDA", "countyid": 31, "fname": "ARTHUR G", "lname": "KLIPPEN", "hasphoto": true, "longitude": -77.10026, "county": "MONTGOMERY", "recid": 607, "latitude": 38.98067, "badloc": false}, {"photo": "1111.png", "hometown": " TAKOMA PARK", "countyid": 31, "fname": "ALBERT OTTO", "lname": "KRAUSSER", "hasphoto": true, "longitude": -77.00748, "county": "MONTGOMERY", "recid": 619, "latitude": 38.97789, "badloc": false}, {"photo": "1111.png", "hometown": " SILVER SPRING", "countyid": 31, "fname": "KENNETH RAY", "lname": "LANCASTER", "hasphoto": true, "longitude": -77.0197, "county": "MONTGOMERY", "recid": 628, "latitude": 38.99344, "badloc": false}, {"photo": "1111.png", "hometown": " SILVER SPRING", "countyid": 31, "fname": "JOHN CLARENCE", "lname": "LIVERMAN", "hasphoto": true, "longitude": -77.0197, "county": "MONTGOMERY", "recid": 646, "latitude": 38.99344, "badloc": false}, {"photo": "1111.png", "hometown": " ROCKVILLE", "countyid": 31, "fname": "ROBERT EDWIN JR", "lname": "MENTZER", "hasphoto": true, "longitude": null, "county": "MONTGOMERY", "recid": 659, "latitude": null, "badloc": false}, {"photo": "66.png", "hometown": " ROCKVILLE", "countyid": 31, "fname": "JOHN ANTHONY JR", "lname": "BIFARETI", "hasphoto": true, "longitude": null, "county": "MONTGOMERY", "recid": 66, "latitude": null, "badloc": false}, {"photo": "67.png", "hometown": " SILVER SPRING", "countyid": 31, "fname": "HAROLD DOUGLAS", "lname": "BILLER", "hasphoto": true, "longitude": -77.0197, "county": "MONTGOMERY", "recid": 67, "latitude": 38.99344, "badloc": false}, {"photo": "1111.png", "hometown": " KENSINGTON", "countyid": 31, "fname": "THOMAS CARROLL D", "lname": "MOFFITT", "hasphoto": true, "longitude": -77.0597, "county": "MONTGOMERY", "recid": 672, "latitude": 39.03983, "badloc": false}, {"photo": "1111.png", "hometown": " SILVER SPRING", "countyid": 31, "fname": "RICHARD KEITH", "lname": "MORRISON", "hasphoto": true, "longitude": -77.0197, "county": "MONTGOMERY", "recid": 679, "latitude": 38.99344, "badloc": false}, {"photo": "684.jpg", "hometown": " ROCKVILLE", "countyid": 31, "fname": "TERRY ALAN", "lname": "MOTE", "hasphoto": true, "longitude": null, "county": "MONTGOMERY", "recid": 684, "latitude": null, "badloc": false}, {"photo": "1111.png", "hometown": " GERMANTOWN", "countyid": 31, "fname": "FREDERICK RICHARD", "lname": "NEEF", "hasphoto": true, "longitude": -77.27026, "county": "MONTGOMERY", "recid": 696, "latitude": 39.16733, "badloc": false}, {"photo": "703.jpg", "hometown": " TAKOMA PARK", "countyid": 31, "fname": "JOHN LEIF", "lname": "NIELSON", "hasphoto": true, "longitude": -77.00748, "county": "MONTGOMERY", "recid": 703, "latitude": 38.97789, "badloc": false}, {"photo": "1111.png", "hometown": " ROCKVILLE", "countyid": 31, "fname": "GERALD E JR", "lname": "NIEWENHOUS", "hasphoto": true, "longitude": null, "county": "MONTGOMERY", "recid": 704, "latitude": null, "badloc": false}, {"photo": "71.jpg", "hometown": " CABIN JOHN", "countyid": 31, "fname": "WILLIAM RONALD", "lname": "BISSELL", "hasphoto": true, "longitude": -77.16498, "county": "MONTGOMERY", "recid": 71, "latitude": 38.9765, "badloc": false}, {"photo": "1111.png", "hometown": " ROCKVILLE", "countyid": 31, "fname": "FRANCES F", "lname": "NOVELLO", "hasphoto": true, "longitude": null, "county": "MONTGOMERY", "recid": 712, "latitude": null, "badloc": false}, {"photo": "1111.png", "hometown": " CHEVY CHASE", "countyid": 31, "fname": "ROY TULANE", "lname": "O KEEFE", "hasphoto": true, "longitude": -77.07887, "county": "MONTGOMERY", "recid": 716, "latitude": 38.96928, "badloc": false}, {"photo": "1111.png", "hometown": " ROCKVILLE", "countyid": 31, "fname": "DAVID FRANKLIN", "lname": "OSBORNE", "hasphoto": true, "longitude": null, "county": "MONTGOMERY", "recid": 718, "latitude": null, "badloc": false}, {"photo": "1111.png", "hometown": " SILVER SPRING", "countyid": 31, "fname": "EDWIN HOLLAND", "lname": "PUMPHREY", "hasphoto": true, "longitude": -77.0197, "county": "MONTGOMERY", "recid": 733, "latitude": 38.99344, "badloc": false}, {"photo": "1111.png", "hometown": " GERMANTOWN", "countyid": 31, "fname": "JAMES PAUL", "lname": "PURKEY", "hasphoto": true, "longitude": -77.27026, "county": "MONTGOMERY", "recid": 734, "latitude": 39.16733, "badloc": false}, {"photo": "1111.png", "hometown": " SILVER SPRING", "countyid": 31, "fname": "FRANK MORRIS JR", "lname": "STREEKS", "hasphoto": true, "longitude": -77.0197, "county": "MONTGOMERY", "recid": 759, "latitude": 38.99344, "badloc": false}, {"photo": "760.jpg", "hometown": " SILVER SPRING", "countyid": 31, "fname": "ALLEN RALPH", "lname": "STROUD", "hasphoto": true, "longitude": -77.0197, "county": "MONTGOMERY", "recid": 760, "latitude": 38.99344, "badloc": false}, {"photo": "1111.png", "hometown": " TAKOMA PARK", "countyid": 31, "fname": "RICHARD EUGENE", "lname": "SWAB", "hasphoto": true, "longitude": -77.00748, "county": "MONTGOMERY", "recid": 764, "latitude": 38.97789, "badloc": false}, {"photo": "1111.png", "hometown": " SILVER SPRING", "countyid": 31, "fname": "ROBERT HATCHER", "lname": "SWAIN", "hasphoto": true, "longitude": -77.0197, "county": "MONTGOMERY", "recid": 765, "latitude": 38.99344, "badloc": false}, {"photo": "1111.png", "hometown": " DERWOOD", "countyid": 31, "fname": "JAMES ALFRED", "lname": "REID", "hasphoto": true, "longitude": -77.16109, "county": "MONTGOMERY", "recid": 775, "latitude": 39.11733, "badloc": false}, {"photo": "1111.png", "hometown": " KENSINGTON", "countyid": 31, "fname": "ROBERT HAZEN II", "lname": "SHIELDS", "hasphoto": true, "longitude": -77.0597, "county": "MONTGOMERY", "recid": 857, "latitude": 39.03983, "badloc": false}, {"photo": "1111.png", "hometown": " SILVER SPRING", "countyid": 31, "fname": "RALPH", "lname": "SIMON", "hasphoto": true, "longitude": -77.0197, "county": "MONTGOMERY", "recid": 864, "latitude": 38.99344, "badloc": false}, {"photo": "1111.png", "hometown": " ROCKVILLE", "countyid": 31, "fname": "ALFRED DOUGLAS JR", "lname": "SMITH", "hasphoto": true, "longitude": null, "county": "MONTGOMERY", "recid": 874, "latitude": null, "badloc": false}, {"photo": "1111.png", "hometown": " SILVER SPRING", "countyid": 31, "fname": "RICHARD CLIFTON", "lname": "SMITH", "hasphoto": true, "longitude": -77.0197, "county": "MONTGOMERY", "recid": 884, "latitude": 38.99344, "badloc": false}, {"photo": "1111.png", "hometown": " SILVER SPRING", "countyid": 31, "fname": "VICTOR ARLON", "lname": "SMITH", "hasphoto": true, "longitude": -77.0197, "county": "MONTGOMERY", "recid": 889, "latitude": 38.99344, "badloc": false}, {"photo": "89.png", "hometown": " SILVER SPRING", "countyid": 31, "fname": "WILLIAM JOSEPH", "lname": "BOEHM", "hasphoto": true, "longitude": -77.0197, "county": "MONTGOMERY", "recid": 89, "latitude": 38.99344, "badloc": false}, {"photo": "1111.png", "hometown": " BETHESDA", "countyid": 31, "fname": "PAUL WINTHROP", "lname": "SMITHSON", "hasphoto": true, "longitude": -77.10026, "county": "MONTGOMERY", "recid": 890, "latitude": 38.98067, "badloc": false}, {"photo": "1111.png", "hometown": " KENSINGTON", "countyid": 31, "fname": "WILLIAM RICHARD JR", "lname": "SPATES", "hasphoto": true, "longitude": -77.0597, "county": "MONTGOMERY", "recid": 899, "latitude": 39.03983, "badloc": false}, {"photo": "1111.png", "hometown": " SILVER SPRING", "countyid": 31, "fname": "WILLIAM ARTHUR JR", "lname": "STACY", "hasphoto": true, "longitude": -77.0197, "county": "MONTGOMERY", "recid": 904, "latitude": 38.99344, "badloc": false}, {"photo": "1111.png", "hometown": " SILVER SPRING", "countyid": 31, "fname": "AKOS DEZSO", "lname": "SZEKELY", "hasphoto": true, "longitude": -77.0197, "county": "MONTGOMERY", "recid": 913, "latitude": 38.99344, "badloc": false}, {"photo": "1111.png", "hometown": " TAKOMA PARK", "countyid": 31, "fname": "ROBERT EMERSON", "lname": "TAYLOR", "hasphoto": true, "longitude": -77.00748, "county": "MONTGOMERY", "recid": 920, "latitude": 38.97789, "badloc": false}, {"photo": "1111.png", "hometown": " BRINKLOW", "countyid": 31, "fname": "JOHN WALTER", "lname": "THOMPSON", "hasphoto": true, "longitude": -77.01553, "county": "MONTGOMERY", "recid": 929, "latitude": 39.16594, "badloc": false}, {"photo": "933.jpg", "hometown": " SELLMAN", "countyid": 31, "fname": "EUGENE COSTELLA", "lname": "TIBBS", "hasphoto": true, "longitude": -77.37832, "county": "MONTGOMERY", "recid": 933, "latitude": 39.20844, "badloc": false}, {"photo": "1111.png", "hometown": " SILVER SPRING", "countyid": 31, "fname": "JOHN RICHARD", "lname": "TINE", "hasphoto": true, "longitude": -77.0197, "county": "MONTGOMERY", "recid": 935, "latitude": 38.99344, "badloc": false}, {"photo": "1111.png", "hometown": " BETHESDA", "countyid": 31, "fname": "THOMAS GAINES", "lname": "TURNER", "hasphoto": true, "longitude": -77.10026, "county": "MONTGOMERY", "recid": 947, "latitude": 38.98067, "badloc": false}, {"photo": "95.png", "hometown": " SILVER SPRING", "countyid": 31, "fname": "JOHN MICHAEL", "lname": "BOWERS", "hasphoto": true, "longitude": -77.0197, "county": "MONTGOMERY", "recid": 95, "latitude": 38.99344, "badloc": false}, {"photo": "1111.png", "hometown": " GAITHERSBURG", "countyid": 31, "fname": "ADOLPHUS NORWOOD", "lname": "TYLER", "hasphoto": true, "longitude": -77.20137, "county": "MONTGOMERY", "recid": 951, "latitude": 39.14344, "badloc": false}, {"photo": "960.jpg", "hometown": " ROCKVILLE", "countyid": 31, "fname": "AUSTIN RICHARD", "lname": "VON KLEIST", "hasphoto": true, "longitude": null, "county": "MONTGOMERY", "recid": 960, "latitude": null, "badloc": false}, {"photo": "1111.png", "hometown": " SILVER SPRING", "countyid": 31, "fname": "DONALD ROLAND", "lname": "WARD", "hasphoto": true, "longitude": -77.0197, "county": "MONTGOMERY", "recid": 968, "latitude": 38.99344, "badloc": false}, {"photo": "1111.png", "hometown": " BETHESDA", "countyid": 31, "fname": "JAMES PATRICK", "lname": "WARD", "hasphoto": true, "longitude": -77.10026, "county": "MONTGOMERY", "recid": 969, "latitude": 38.98067, "badloc": false}, {"photo": "1111.png", "hometown": " CHEVY CHASE", "countyid": 31, "fname": "GEORGE BADEN", "lname": "WARING", "hasphoto": true, "longitude": -77.07887, "county": "MONTGOMERY", "recid": 971, "latitude": 38.96928, "badloc": false}, {"photo": "984.jpg", "hometown": " WHEATON", "countyid": 31, "fname": "DONALD EUGENE", "lname": "WEISMAN", "hasphoto": true, "longitude": -77.05269, "county": "MONTGOMERY", "recid": 984, "latitude": 39.05762, "badloc": false}, {"photo": "1111.png", "hometown": " SILVER SPRING", "countyid": 31, "fname": "WILLIAM ANTHONY", "lname": "WILK", "hasphoto": true, "longitude": -77.0197, "county": "MONTGOMERY", "recid": 999, "latitude": 38.99344, "badloc": false}], "countyid": 31}, {"casualties": [{"photo": "1111.png", "hometown": " LAUREL", "countyid": 33, "fname": "SAMUEL LOUIS JR", "lname": "WILLIAMS", "hasphoto": true, "longitude": -76.83942, "county": "PRINCE GEORGES", "recid": 1003, "latitude": 39.0465, "badloc": false}, {"photo": "1111.png", "hometown": " BRANDYWINE", "countyid": 33, "fname": "JAN FRANKLIN", "lname": "WILSON", "hasphoto": true, "longitude": -76.85497, "county": "PRINCE GEORGES", "recid": 1009, "latitude": 38.68956, "badloc": false}, {"photo": "1111.png", "hometown": " HILLSIDE", "countyid": 33, "fname": "JAMES FREDERICK", "lname": "WORTH", "hasphoto": true, "longitude": -76.92414, "county": "PRINCE GEORGES", "recid": 1028, "latitude": 38.87289, "badloc": false}, {"photo": "1111.png", "hometown": " SUITLAND", "countyid": 33, "fname": "DAVID LEO", "lname": "WRIGHT", "hasphoto": true, "longitude": -76.92591, "county": "PRINCE GEORGES", "recid": 1032, "latitude": 38.84685, "badloc": false}, {"photo": "1111.png", "hometown": " RIVERDALE", "countyid": 33, "fname": "HOWARD EUGENE", "lname": "WRIGHT", "hasphoto": true, "longitude": -76.93164, "county": "PRINCE GEORGES", "recid": 1034, "latitude": 38.96344, "badloc": false}, {"photo": "1111.png", "hometown": " CAPITOL HEIGHTS", "countyid": 33, "fname": "ANDREW WINTER JR", "lname": "YOUNGKIN", "hasphoto": true, "longitude": null, "county": "PRINCE GEORGES", "recid": 1042, "latitude": null, "badloc": false}, {"photo": "1111.png", "hometown": " BERWYN HEIGHTS", "countyid": 33, "fname": "DONALD PATRICK", "lname": "CALDWELL", "hasphoto": true, "longitude": -76.91053, "county": "PRINCE GEORGES", "recid": 108, "latitude": 38.994, "badloc": false}, {"photo": "115.png", "hometown": " SILVER HILL", "countyid": 33, "fname": "WILLIAM LADD", "lname": "CAMPBELL", "hasphoto": true, "longitude": -76.94859, "county": "PRINCE GEORGES", "recid": 115, "latitude": 38.83678, "badloc": false}, {"photo": "13.png", "hometown": " BLADENSBURG", "countyid": 33, "fname": "JOHN ARTHUR JR", "lname": "ANSELL", "hasphoto": true, "longitude": -76.93386, "county": "PRINCE GEORGES", "recid": 13, "latitude": 38.93928, "badloc": false}, {"photo": "132.jpg", "hometown": " MOUNT RAINIER", "countyid": 33, "fname": "JOAQUIN", "lname": "CASTRO", "hasphoto": true, "longitude": -76.96498, "county": "PRINCE GEORGES", "recid": 132, "latitude": 38.9415, "badloc": false}, {"photo": "1111.png", "hometown": " LAUREL", "countyid": 33, "fname": "JOHN JOSEPH", "lname": "CHASE", "hasphoto": true, "longitude": -76.83942, "county": "PRINCE GEORGES", "recid": 134, "latitude": 39.0465, "badloc": false}, {"photo": "14.png", "hometown": " COLLEGE PARK", "countyid": 33, "fname": "PAUL ROBERT", "lname": "ANZELONE", "hasphoto": true, "longitude": -76.93692, "county": "PRINCE GEORGES", "recid": 14, "latitude": 38.98067, "badloc": false}, {"photo": "1111.png", "hometown": " COLLEGE PARK", "countyid": 33, "fname": "LIONEL TIMOTHY", "lname": "CLOVER", "hasphoto": true, "longitude": -76.93692, "county": "PRINCE GEORGES", "recid": 148, "latitude": 38.98067, "badloc": false}, {"photo": "1111.png", "hometown": " FORESTVILLE", "countyid": 33, "fname": "FRANCIS BRYANT", "lname": "CONCANNON", "hasphoto": true, "longitude": -76.87497, "county": "PRINCE GEORGES", "recid": 154, "latitude": 38.84511, "badloc": false}, {"photo": "1111.png", "hometown": " SUITLAND", "countyid": 33, "fname": "WOODROW CHARLES", "lname": "CRONKRITE", "hasphoto": true, "longitude": -76.92591, "county": "PRINCE GEORGES", "recid": 176, "latitude": 38.84685, "badloc": false}, {"photo": "181.png", "hometown": " COLLEGE PARK", "countyid": 33, "fname": "PAUL ANTHONY", "lname": "CUMBERLAND", "hasphoto": true, "longitude": -76.93692, "county": "PRINCE GEORGES", "recid": 181, "latitude": 38.98067, "badloc": false}, {"photo": "1111.png", "hometown": " UPPER MARLBORO", "countyid": 33, "fname": "BERNARD EUGENE", "lname": "CURTIS", "hasphoto": true, "longitude": null, "county": "PRINCE GEORGES", "recid": 184, "latitude": null, "badloc": false}, {"photo": "1111.png", "hometown": " CHILLUM", "countyid": 33, "fname": "JOSEPH PETER", "lname": "DASTOLI", "hasphoto": true, "longitude": -76.9712, "county": "PRINCE GEORGES", "recid": 193, "latitude": 38.9706, "badloc": false}, {"photo": "195.jpg", "hometown": " EAST RIVERDALE", "countyid": 33, "fname": "DAVID ARTHUR", "lname": "DAVIDSON", "hasphoto": true, "longitude": -76.92192, "county": "PRINCE GEORGES", "recid": 195, "latitude": 38.96206, "badloc": false}, {"photo": "2.jpg", "hometown": " HILLCREST HEIGHTS", "countyid": 33, "fname": "WILLIAM WALLACE", "lname": "ABSHEAR", "hasphoto": true, "longitude": -76.95942, "county": "PRINCE GEORGES", "recid": 2, "latitude": 38.83289, "badloc": false}, {"photo": "1111.png", "hometown": " WOODLAWN", "countyid": 33, "fname": "STEVEN WILLIAM", "lname": "DECKER", "hasphoto": true, "longitude": -76.89136, "county": "PRINCE GEORGES", "recid": 204, "latitude": 38.94956, "badloc": false}, {"photo": "1111.png", "hometown": " COLLEGE PARK", "countyid": 33, "fname": "JAMES EGBERT", "lname": "DICKERSON", "hasphoto": true, "longitude": -76.93692, "county": "PRINCE GEORGES", "recid": 215, "latitude": 38.98067, "badloc": false}, {"photo": "216.jpg", "hometown": " HYATTSVILLE", "countyid": 33, "fname": "ROBERT BOLT III", "lname": "DICKERSON", "hasphoto": true, "longitude": -76.95109, "county": "PRINCE GEORGES", "recid": 216, "latitude": 38.96067, "badloc": false}, {"photo": "1111.png", "hometown": " BERWYN HEIGHTS", "countyid": 33, "fname": "LINDEN BROOK", "lname": "DIXON", "hasphoto": true, "longitude": -76.91053, "county": "PRINCE GEORGES", "recid": 220, "latitude": 38.994, "badloc": false}, {"photo": "1111.png", "hometown": " WEST HYATTSVILLE", "countyid": 33, "fname": "DONALD RALPH", "lname": "DORMAN", "hasphoto": true, "longitude": null, "county": "PRINCE GEORGES", "recid": 229, "latitude": null, "badloc": false}, {"photo": "23.png", "hometown": " MOUNT RAINIER", "countyid": 33, "fname": "JOHN WILLIAM", "lname": "AVELLEYRA", "hasphoto": true, "longitude": -76.96498, "county": "PRINCE GEORGES", "recid": 23, "latitude": 38.9415, "badloc": false}, {"photo": "233.jpg", "hometown": " RIVERDALE", "countyid": 33, "fname": "TIMOTHY CALVIN", "lname": "DRAKE", "hasphoto": true, "longitude": -76.93164, "county": "PRINCE GEORGES", "recid": 233, "latitude": 38.96344, "badloc": false}, {"photo": "1111.png", "hometown": " LANHAM", "countyid": 33, "fname": "FRANK MELVIN JR", "lname": "DUNSMORE", "hasphoto": true, "longitude": -76.84536, "county": "PRINCE GEORGES", "recid": 238, "latitude": 38.96691, "badloc": false}, {"photo": "1111.png", "hometown": " HYATTSVILLE", "countyid": 33, "fname": "STEPHEN MICHAEL", "lname": "DYDYNSKI", "hasphoto": true, "longitude": -76.95109, "county": "PRINCE GEORGES", "recid": 240, "latitude": 38.96067, "badloc": false}, {"photo": "1111.png", "hometown": " OXON HILL", "countyid": 33, "fname": "LARRY EUGENE", "lname": "DYER", "hasphoto": true, "longitude": -76.97499, "county": "PRINCE GEORGES", "recid": 241, "latitude": 38.79615, "badloc": false}, {"photo": "287.jpg", "hometown": " HYATTSVILLE", "countyid": 33, "fname": "JOHN CHRISTOPHER", "lname": "GIBSON", "hasphoto": true, "longitude": -76.95109, "county": "PRINCE GEORGES", "recid": 287, "latitude": 38.96067, "badloc": false}, {"photo": "290.jpg", "hometown": " HYATTSVILLE", "countyid": 33, "fname": "RONALD STUART", "lname": "GILLIAM", "hasphoto": true, "longitude": -76.95109, "county": "PRINCE GEORGES", "recid": 290, "latitude": 38.96067, "badloc": false}, {"photo": "1111.png", "hometown": " BRANDYWINE", "countyid": 33, "fname": "CHARLES GONZIE", "lname": "GRAY", "hasphoto": true, "longitude": -76.85497, "county": "PRINCE GEORGES", "recid": 308, "latitude": 38.68956, "badloc": false}, {"photo": "1111.png", "hometown": " LAUREL", "countyid": 33, "fname": "FRANCIS GARFIELD", "lname": "GRAY", "hasphoto": true, "longitude": -76.83942, "county": "PRINCE GEORGES", "recid": 309, "latitude": 39.0465, "badloc": false}, {"photo": "316.jpg", "hometown": " BOWIE", "countyid": 33, "fname": "MICHAEL ALLEN", "lname": "GRIGGS", "hasphoto": true, "longitude": -76.73028, "county": "PRINCE GEORGES", "recid": 316, "latitude": 38.94278, "badloc": false}, {"photo": "1111.png", "hometown": " HILLSIDE", "countyid": 33, "fname": "TATE TALMAGE III", "lname": "HACKNEY", "hasphoto": true, "longitude": -76.92414, "county": "PRINCE GEORGES", "recid": 321, "latitude": 38.87289, "badloc": false}, {"photo": "1111.png", "hometown": " HYATTSVILLE", "countyid": 33, "fname": "PAUL LEROY", "lname": "HARRISON", "hasphoto": true, "longitude": -76.95109, "county": "PRINCE GEORGES", "recid": 326, "latitude": 38.96067, "badloc": false}, {"photo": "1111.png", "hometown": " CAMP SPRINGS", "countyid": 33, "fname": "STEPHEN LAWRENCE", "lname": "HAVAS", "hasphoto": true, "longitude": -76.90664, "county": "PRINCE GEORGES", "recid": 331, "latitude": 38.804, "badloc": false}, {"photo": "1111.png", "hometown": " LAUREL", "countyid": 33, "fname": "ALVAH WORRELL JR", "lname": "HENSON", "hasphoto": true, "longitude": -76.83942, "county": "PRINCE GEORGES", "recid": 337, "latitude": 39.0465, "badloc": false}, {"photo": "340.JPG", "hometown": " HYATTSVILLE", "countyid": 33, "fname": "SILAS LUCAS JR", "lname": "HICKS", "hasphoto": true, "longitude": -76.95109, "county": "PRINCE GEORGES", "recid": 340, "latitude": 38.96067, "badloc": false}, {"photo": "1111.png", "hometown": " EAST RIVERDALE", "countyid": 33, "fname": "RICHARD DAVID", "lname": "HUMPHREY", "hasphoto": true, "longitude": -76.92192, "county": "PRINCE GEORGES", "recid": 348, "latitude": 38.96206, "badloc": false}, {"photo": "1111.png", "hometown": " LANDOVER", "countyid": 33, "fname": "STEPHEN JOSEPH", "lname": "HUSKEY", "hasphoto": true, "longitude": -76.91247, "county": "PRINCE GEORGES", "recid": 349, "latitude": 38.92511, "badloc": false}, {"photo": "1111.png", "hometown": " HYATTSVILLE", "countyid": 33, "fname": "KURT CHRISTOPHER", "lname": "HUSSMANN", "hasphoto": true, "longitude": -76.95109, "county": "PRINCE GEORGES", "recid": 350, "latitude": 38.96067, "badloc": false}, {"photo": "1111.png", "hometown": " SUITLAND", "countyid": 33, "fname": "HARRY RICHARD", "lname": "ITALIANO", "hasphoto": true, "longitude": -76.92591, "county": "PRINCE GEORGES", "recid": 355, "latitude": 38.84685, "badloc": false}, {"photo": "1111.png", "hometown": " LAUREL", "countyid": 33, "fname": "JAMES", "lname": "LOSPINUSO", "hasphoto": true, "longitude": -76.83942, "county": "PRINCE GEORGES", "recid": 373, "latitude": 39.0465, "badloc": false}, {"photo": "1111.png", "hometown": " CHEVERLY", "countyid": 33, "fname": "CHARLES GILBERT", "lname": "MASON", "hasphoto": true, "longitude": -76.91581, "county": "PRINCE GEORGES", "recid": 397, "latitude": 38.92817, "badloc": false}, {"photo": "401.jpg", "hometown": " LANGLEY PARK", "countyid": 33, "fname": "DONALD JAMES JR", "lname": "MATTARO", "hasphoto": true, "longitude": -76.98136, "county": "PRINCE GEORGES", "recid": 401, "latitude": 38.98872, "badloc": false}, {"photo": "1111.png", "hometown": " OXON HILL", "countyid": 33, "fname": "GEORGE MICHAEL", "lname": "MATTINGLY", "hasphoto": true, "longitude": -76.97499, "county": "PRINCE GEORGES", "recid": 402, "latitude": 38.79615, "badloc": false}, {"photo": "1111.png", "hometown": " HYATTSVILLE", "countyid": 33, "fname": "DAVID MURRAY", "lname": "MAY", "hasphoto": true, "longitude": -76.95109, "county": "PRINCE GEORGES", "recid": 404, "latitude": 38.96067, "badloc": false}, {"photo": "1111.png", "hometown": " COLLEGE PARK", "countyid": 33, "fname": "JOSEPH F III", "lname": "MC DERMOTT", "hasphoto": true, "longitude": -76.93692, "county": "PRINCE GEORGES", "recid": 414, "latitude": 38.98067, "badloc": false}, {"photo": "1111.png", "hometown": " RIVERDALE", "countyid": 33, "fname": "JAMES GERALD", "lname": "MC GOVERN", "hasphoto": true, "longitude": -76.93164, "county": "PRINCE GEORGES", "recid": 417, "latitude": 38.96344, "badloc": false}, {"photo": "42.png", "hometown": " MITCHELLVILLE", "countyid": 33, "fname": "KENNETH LEONARD", "lname": "BARTLEY", "hasphoto": true, "longitude": -76.74275, "county": "PRINCE GEORGES", "recid": 42, "latitude": 38.92511, "badloc": false}, {"photo": "1111.png", "hometown": " LAUREL", "countyid": 33, "fname": "JAMES BRUCE", "lname": "OKANE", "hasphoto": true, "longitude": -76.83942, "county": "PRINCE GEORGES", "recid": 424, "latitude": 39.0465, "badloc": false}, {"photo": "43.png", "hometown": " BOWIE", "countyid": 33, "fname": "JAMES LEON", "lname": "BATES", "hasphoto": true, "longitude": -76.73028, "county": "PRINCE GEORGES", "recid": 43, "latitude": 38.94278, "badloc": false}, {"photo": "1111.png", "hometown": " MOUNT RANIER", "countyid": 33, "fname": "LOUIS SR", "lname": "PAYNE", "hasphoto": true, "longitude": null, "county": "PRINCE GEORGES", "recid": 430, "latitude": null, "badloc": false}, {"photo": "1111.png", "hometown": " DISTRICT HEIGHTS", "countyid": 33, "fname": "JOHN FRANCIS", "lname": "PENDER", "hasphoto": true, "longitude": -76.88942, "county": "PRINCE GEORGES", "recid": 436, "latitude": 38.85761, "badloc": false}, {"photo": "1111.png", "hometown": " LAUREL", "countyid": 33, "fname": "JOHN RAYMOND", "lname": "POE", "hasphoto": true, "longitude": -76.83942, "county": "PRINCE GEORGES", "recid": 448, "latitude": 39.0465, "badloc": false}, {"photo": "1111.png", "hometown": " EAST PINES", "countyid": 33, "fname": "WILLIAM EUGENE", "lname": "PRICE", "hasphoto": true, "longitude": -76.90942, "county": "PRINCE GEORGES", "recid": 461, "latitude": 38.95983, "badloc": false}, {"photo": "1111.png", "hometown": " OXON HILL", "countyid": 33, "fname": "FRANK MAURICE", "lname": "PROCTOR", "hasphoto": true, "longitude": -76.97499, "county": "PRINCE GEORGES", "recid": 463, "latitude": 38.79615, "badloc": false}, {"photo": "1111.png", "hometown": " CAPITOL HEIGHTS", "countyid": 33, "fname": "DALE", "lname": "BRANDENBURG", "hasphoto": true, "longitude": null, "county": "PRINCE GEORGES", "recid": 474, "latitude": null, "badloc": false}, {"photo": "1111.png", "hometown": " BLADENSBURG", "countyid": 33, "fname": "WILLIAM MICHAEL", "lname": "BRANOCK", "hasphoto": true, "longitude": -76.93386, "county": "PRINCE GEORGES", "recid": 475, "latitude": 38.93928, "badloc": false}, {"photo": "1111.png", "hometown": " RIVERDALE", "countyid": 33, "fname": "PAUL EDWARD", "lname": "BRIDGETT", "hasphoto": true, "longitude": -76.93164, "county": "PRINCE GEORGES", "recid": 481, "latitude": 38.96344, "badloc": false}, {"photo": "486.jpg", "hometown": " CAPITOL HEIGHTS", "countyid": 33, "fname": "EARL THOMAS", "lname": "BROOKE", "hasphoto": true, "longitude": null, "county": "PRINCE GEORGES", "recid": 486, "latitude": null, "badloc": false}, {"photo": "1111.png", "hometown": " MORNINGSIDE", "countyid": 33, "fname": "THOMAS FRANCIS JR", "lname": "BROWN", "hasphoto": true, "longitude": -76.89136, "county": "PRINCE GEORGES", "recid": 493, "latitude": 38.83011, "badloc": false}, {"photo": "506.jpg", "hometown": " LANGLEY PARK", "countyid": 33, "fname": "CLIFFORD GARLAND", "lname": "BURCH", "hasphoto": true, "longitude": -76.98136, "county": "PRINCE GEORGES", "recid": 506, "latitude": 38.98872, "badloc": false}, {"photo": "1111.png", "hometown": " CAPITOL HEIGHTS", "countyid": 33, "fname": "DENNIS DEAN", "lname": "DAVIS", "hasphoto": true, "longitude": null, "county": "PRINCE GEORGES", "recid": 510, "latitude": null, "badloc": false}, {"photo": "1111.png", "hometown": " RIVERDALE", "countyid": 33, "fname": "JAMES NORRIS", "lname": "DAVIS", "hasphoto": true, "longitude": -76.93164, "county": "PRINCE GEORGES", "recid": 512, "latitude": 38.96344, "badloc": false}, {"photo": "526.jpg", "hometown": " HYATTSVILLE", "countyid": 33, "fname": "HARRY DAVID", "lname": "HAMM", "hasphoto": true, "longitude": -76.95109, "county": "PRINCE GEORGES", "recid": 526, "latitude": 38.96067, "badloc": false}, {"photo": "539.jpg", "hometown": " CLINTON", "countyid": 33, "fname": "JEFFREY LYNDOL", "lname": "HARRIS", "hasphoto": true, "longitude": -76.89831, "county": "PRINCE GEORGES", "recid": 539, "latitude": 38.76511, "badloc": false}, {"photo": "1111.png", "hometown": " BLADENSBURG", "countyid": 33, "fname": "JIMMY ARNOLD", "lname": "HILL", "hasphoto": true, "longitude": -76.93386, "county": "PRINCE GEORGES", "recid": 543, "latitude": 38.93928, "badloc": false}, {"photo": "554.png", "hometown": " HYATTSVILLE", "countyid": 33, "fname": "DAVID KEITH", "lname": "HOLDWAY", "hasphoto": true, "longitude": -76.95109, "county": "PRINCE GEORGES", "recid": 554, "latitude": 38.96067, "badloc": false}, {"photo": "56.png", "hometown": " SEAT PLEASANT", "countyid": 33, "fname": "GEORGE ALBERT JR", "lname": "BELL", "hasphoto": true, "longitude": -76.90664, "county": "PRINCE GEORGES", "recid": 56, "latitude": 38.89622, "badloc": false}, {"photo": "1111.png", "hometown": " HYATTSVILLE", "countyid": 33, "fname": "MICHAEL J", "lname": "HOOVER", "hasphoto": true, "longitude": -76.95109, "county": "PRINCE GEORGES", "recid": 560, "latitude": 38.96067, "badloc": false}, {"photo": "1111.png", "hometown": " BRENTWOOD", "countyid": 33, "fname": "MICHAEL NEAL", "lname": "JOHNSON", "hasphoto": true, "longitude": -76.95664, "county": "PRINCE GEORGES", "recid": 565, "latitude": 38.94317, "badloc": false}, {"photo": "1111.png", "hometown": " BELTSVILLE", "countyid": 33, "fname": "JAMES HOWARD", "lname": "JONES", "hasphoto": true, "longitude": -76.90803, "county": "PRINCE GEORGES", "recid": 572, "latitude": 39.04566, "badloc": false}, {"photo": "1111.png", "hometown": " BELTSVILLE", "countyid": 33, "fname": "THOMAS EDWARD JR", "lname": "JONES", "hasphoto": true, "longitude": -76.90803, "county": "PRINCE GEORGES", "recid": 576, "latitude": 39.04566, "badloc": false}, {"photo": "1111.png", "hometown": " DISTRICT HEIGHTS", "countyid": 33, "fname": "THOMAS WELDON", "lname": "JONES", "hasphoto": true, "longitude": -76.88942, "county": "PRINCE GEORGES", "recid": 577, "latitude": 38.85761, "badloc": false}, {"photo": "1111.png", "hometown": " SEAT PLEASANT", "countyid": 33, "fname": "JAMES JR", "lname": "KENNEDY", "hasphoto": true, "longitude": -76.90664, "county": "PRINCE GEORGES", "recid": 587, "latitude": 38.89622, "badloc": false}, {"photo": "1111.png", "hometown": " GREENBELT", "countyid": 33, "fname": "WILLIAM LEWIS JR", "lname": "KIEFFER", "hasphoto": true, "longitude": -76.87553, "county": "PRINCE GEORGES", "recid": 593, "latitude": 39.00455, "badloc": false}, {"photo": "1111.png", "hometown": " ADELPHI", "countyid": 33, "fname": "THOMAS MICHAEL", "lname": "KILCULLEN", "hasphoto": true, "longitude": -76.96803, "county": "PRINCE GEORGES", "recid": 594, "latitude": 38.9865, "badloc": false}, {"photo": "60.png", "hometown": " HYATTSVILLE", "countyid": 33, "fname": "BARRY HOWARD", "lname": "BERGER", "hasphoto": true, "longitude": -76.95109, "county": "PRINCE GEORGES", "recid": 60, "latitude": 38.96067, "badloc": false}, {"photo": "1111.png", "hometown": " HYATTSVILLE", "countyid": 33, "fname": "THOMAS RAY", "lname": "KING", "hasphoto": true, "longitude": -76.95109, "county": "PRINCE GEORGES", "recid": 600, "latitude": 38.96067, "badloc": false}, {"photo": "1111.png", "hometown": " CAMP SPRINGS", "countyid": 33, "fname": "ROBERT EDWARD", "lname": "KNADLE", "hasphoto": true, "longitude": -76.90664, "county": "PRINCE GEORGES", "recid": 608, "latitude": 38.804, "badloc": false}, {"photo": "1111.png", "hometown": " BELTSVILLE", "countyid": 33, "fname": "JOHN DAVID", "lname": "KRAMER", "hasphoto": true, "longitude": -76.90803, "county": "PRINCE GEORGES", "recid": 617, "latitude": 39.04566, "badloc": false}, {"photo": "1111.png", "hometown": " OXON HILL", "countyid": 33, "fname": "CHARLES WILLARD", "lname": "LARMAN", "hasphoto": true, "longitude": -76.97499, "county": "PRINCE GEORGES", "recid": 629, "latitude": 38.79615, "badloc": false},