[{"fname": "ROBERT LEROY", "lname": "WILLARD", "hasphoto": true, "photo": null, "hometown": " FREDERICK", "latitude": 39.294, "longitude": -76.59636, "county": "FREDERICK"},
{"fname": "CHARLES", "lname": "WILLIAMS", "hasphoto": true, "photo": null, "hometown": " BALTIMORE", "latitude": 39.23316, "longitude": -76.63663, "county": "BALTIMORE CITY"},
{"fname": "RAYNER EDWARD", "lname": "WILLIAMS", "hasphoto": true, "photo": null, "hometown": " BALTIMORE", "latitude": 39.23316, "longitude": -76.63663, "county": "BALTIMORE CITY"},
{"fname": "SAMUEL LOUIS JR", "lname": "WILLIAMS", "hasphoto": true, "photo": null, "hometown": " LAUREL", "latitude": 39.09928, "longitude": -76.84831, "county": "PRINCE GEORGES"},
{"fname": "WALTER DOUGLAS", "lname": "WILLIAMS", "hasphoto": true, "photo": null, "hometown": " GLYNDON", "latitude": 39.47649, "longitude": -76.81581, "county": "BALTIMORE"},
{"fname": "JOHN DAVIS", "lname": "WILLINGHAM", "hasphoto": true, "photo": null, "hometown": " SALISBURY", "latitude": 39.75286, "longitude": -79.08086, "county": "WICOMICO"},
{"fname": "FRANCIS DESALES", "lname": "WILLS", "hasphoto": true, "photo": null, "hometown": " LA PLATA", "latitude": -77, "longitude": 39, "county": "CHARLES"},
{"fname": "IRVING MCKINLEY JR", "lname": "WILSON", "hasphoto": true, "photo": null, "hometown": " BALTIMORE", "latitude": 39.23316, "longitude": -76.63663, "county": "BALTIMORE CITY"},
{"fname": "JAMES EDWARD", "lname": "WILSON", "hasphoto": true, "photo": null, "hometown": " BALTIMORE", "latitude": 39.23316, "longitude": -76.63663, "county": "BALTIMORE CITY"},
{"fname": "JAN FRANKLIN", "lname": "WILSON", "hasphoto": true, "photo": null, "hometown": " BRANDYWINE", "latitude": 38.69678, "longitude": -76.84775, "county": "PRINCE GEORGES"},
{"fname": "ROBERTS PATON", "lname": "BURROWS", "hasphoto": true, "photo": null, "hometown": " DENTON", "latitude": 39.90871, "longitude": -76.64469, "county": "CAROLINE"},
{"fname": "JOSEPH", "lname": "WILSON", "hasphoto": true, "photo": null, "hometown": " BALTIMORE", "latitude": 39.23316, "longitude": -76.63663, "county": "BALTIMORE CITY"},
{"fname": "LORNE JOHN", "lname": "WILSON", "hasphoto": true, "photo": null, "hometown": " ROCKVILLE", "latitude": 39.93092, "longitude": -78.67113, "county": "MONTGOMERY"},
{"fname": "MONTY NORRIS", "lname": "WILSON", "hasphoto": true, "photo": null, "hometown": " BEL AIR", "latitude": 38.63095, "longitude": -76.92525, "county": "HARFORD"},
{"fname": "VIRGIL HENRY JR", "lname": "WILSON", "hasphoto": true, "photo": null, "hometown": " GOLTS", "latitude": 39.33678, "longitude": -75.77466, "county": "KENT"},
{"fname": "NUTTER JEROME III", "lname": "WIMBROW", "hasphoto": true, "photo": null, "hometown": " WHALEYSVILLE", "latitude": -77, "longitude": 39, "county": "WORCESTER"},
{"fname": "WILLARD ALVON", "lname": "WIMMER", "hasphoto": true, "photo": null, "hometown": " BALTIMORE", "latitude": 39.23316, "longitude": -76.63663, "county": "BALTIMORE CITY"},
{"fname": "ALBERT GREEN JR", "lname": "WINGFIELD", "hasphoto": true, "photo": null, "hometown": " OWINGS MILLS", "latitude": 39.41955, "longitude": -76.78025, "county": "BALTIMORE"},
{"fname": "DAVID DE SALES", "lname": "WINKLER", "hasphoto": true, "photo": null, "hometown": " LA PLATA", "latitude": -77, "longitude": 39, "county": "CHARLES"},
{"fname": "ALVESTER LEE", "lname": "WINSTON", "hasphoto": true, "photo": null, "hometown": " BALTIMORE", "latitude": 39.23316, "longitude": -76.63663, "county": "BALTIMORE CITY"},
{"fname": "THURMAN WILLIAM", "lname": "WINSTON", "hasphoto": true, "photo": null, "hometown": " TRAPPE", "latitude": 38.65845, "longitude": -76.058, "county": "TALBOT"},
{"fname": "JOHN LEE", "lname": "BURTON", "hasphoto": true, "photo": null, "hometown": " BALTIMORE", "latitude": 39.23316, "longitude": -76.63663, "county": "BALTIMORE CITY"},
{"fname": "TERRY", "lname": "WINTERMOYER", "hasphoto": true, "photo": null, "hometown": " SILVER SPRING", "latitude": 38.99067, "longitude": -77.02609, "county": "MONTGOMERY"},
{"fname": "EDWARD JOSEPH", "lname": "WISE", "hasphoto": true, "photo": null, "hometown": " STREET", "latitude": 39.66899, "longitude": -76.37941, "county": "HARFORD"},
{"fname": "DAVID", "lname": "WISNIEWSKI", "hasphoto": true, "photo": null, "hometown": " BALTIMORE", "latitude": 39.23316, "longitude": -76.63663, "county": "BALTIMORE CITY"},
{"fname": "CHARLES E", "lname": "WITHERSPOON", "hasphoto": true, "photo": null, "hometown": " BALTIMORE", "latitude": 39.23316, "longitude": -76.63663, "county": "BALTIMORE CITY"},
{"fname": "JOHN LEO", "lname": "WOJCICKY", "hasphoto": true, "photo": null, "hometown": " BALTIMORE", "latitude": 39.23316, "longitude": -76.63663, "county": "BALTIMORE CITY"},
{"fname": "BERTRAM JR", "lname": "WOOD", "hasphoto": true, "photo": null, "hometown": " BALTIMORE", "latitude": 39.23316, "longitude": -76.63663, "county": "BALTIMORE CITY"},
{"fname": "LARRY ALBERT", "lname": "WOODBURN", "hasphoto": true, "photo": null, "hometown": " SILVER SPRING", "latitude": 38.99067, "longitude": -77.02609, "county": "MONTGOMERY"},
{"fname": "THOMAS S JR", "lname": "WOODLAND", "hasphoto": true, "photo": null, "hometown": " INDIAN HEAD", "latitude": 38.60012, "longitude": -77.1622, "county": "CHARLES"},
{"fname": "JAMES FREDERICK", "lname": "WORTH", "hasphoto": true, "photo": null, "hometown": " HILLSIDE", "latitude": 39.58955, "longitude": -76.95665, "county": "PRINCE GEORGES"},
{"fname": "JOHN E", "lname": "WOS", "hasphoto": true, "photo": null, "hometown": " BALTIMORE", "latitude": 39.23316, "longitude": -76.63663, "county": "BALTIMORE CITY"},
{"fname": "NATHANIEL", "lname": "BUSH", "hasphoto": true, "photo": null, "hometown": " BALTIMORE", "latitude": 39.23316, "longitude": -76.63663, "county": "BALTIMORE CITY"},
{"fname": "ALBERT FLOYD JR", "lname": "WRIGHT", "hasphoto": true, "photo": null, "hometown": " ANNAPOLIS", "latitude": 38.93956, "longitude": -76.46051, "county": "ANNE ARUNDEL"},
{"fname": "DAVID IRVIN", "lname": "WRIGHT", "hasphoto": true, "photo": null, "hometown": " ANNAPOLIS", "latitude": 38.93956, "longitude": -76.46051, "county": "ANNE ARUNDEL"},
{"fname": "DAVID LEO", "lname": "WRIGHT", "hasphoto": true, "photo": null, "hometown": " SUITLAND", "latitude": 38.84872, "longitude": -76.92386, "county": "PRINCE GEORGES"},
{"fname": "DONALD LEE", "lname": "WRIGHT", "hasphoto": true, "photo": null, "hometown": " MOUNT SAVAGE", "latitude": 39.69564, "longitude": -78.87974, "county": "ALLEGANY"},
{"fname": "HOWARD EUGENE", "lname": "WRIGHT", "hasphoto": true, "photo": null, "hometown": " RIVERDALE", "latitude": 39.09928, "longitude": -76.5358, "county": "PRINCE GEORGES"},
{"fname": "HOWARD OLIVER JR", "lname": "WRIGHT", "hasphoto": true, "photo": null, "hometown": " CENTREVILLE", "latitude": 39.05483, "longitude": -76.07356, "county": "QUEEN ANNE"},
{"fname": "JOHN WILLIAM", "lname": "YEAGER", "hasphoto": true, "photo": null, "hometown": " BALTIMORE", "latitude": 39.23316, "longitude": -76.63663, "county": "BALTIMORE CITY"},
{"fname": "MICHAEL JOSEPH", "lname": "YEAGER", "hasphoto": true, "photo": null, "hometown": " BALTIMORE", "latitude": 39.23316, "longitude": -76.63663, "county": "BALTIMORE CITY"},
{"fname": "ROBERT D", "lname": "YORKER", "hasphoto": true, "photo": null, "hometown": " QUEENSTOWN", "latitude": 38.95067, "longitude": -76.9647, "county": "QUEEN ANNE"},
{"fname": "DONALD EARL", "lname": "YOUNG", "hasphoto": true, "photo": null, "hometown": " BALTIMORE", "latitude": 39.23316, "longitude": -76.63663, "county": "BALTIMORE CITY"},
{"fname": "CHARLES GILMAN JR", "lname": "BUTLER", "hasphoto": true, "photo": null, "hometown": " SILVER SPRING", "latitude": 38.99067, "longitude": -77.02609, "county": "MONTGOMERY"},
{"fname": "HOWARD JAMES JR", "lname": "YOUNGER", "hasphoto": true, "photo": null, "hometown": " BALTIMORE", "latitude": 39.23316, "longitude": -76.63663, "county": "BALTIMORE CITY"},
{"fname": "JAMES DOMINIO", "lname": "YOUNGHAM", "hasphoto": true, "photo": null, "hometown": " GLEN BURNIE", "latitude": 39.16261, "longitude": -76.62469, "county": "ANNE ARUNDEL"},
{"fname": "ANDREW WINTER JR", "lname": "YOUNGKIN", "hasphoto": true, "photo": null, "hometown": " CAPITOL HEIGHTS", "latitude": -77, "longitude": 39, "county": "PRINCE GEORGES"},
{"fname": "DAVID BARTELS", "lname": "ZIEGLER", "hasphoto": true, "photo": null, "hometown": " BALTIMORE", "latitude": 39.23316, "longitude": -76.63663, "county": "BALTIMORE CITY"},
{"fname": "SANDY JR", "lname": "ZIMMERMAN", "hasphoto": true, "photo": null, "hometown": " BALTIMORE", "latitude": 39.23316, "longitude": -76.63663, "county": "BALTIMORE CITY"},
{"fname": "WILLIAM E JR", "lname": "ZIMMERMAN", "hasphoto": true, "photo": null, "hometown": " FREDERICK", "latitude": 39.294, "longitude": -76.59636, "county": "FREDERICK"},
{"fname": "JAMES HENRY", "lname": "ZUMBRUN", "hasphoto": true, "photo": null, "hometown": " MANCHESTER", "latitude": 39.66121, "longitude": -76.88498, "county": "CARROLL"},
{"fname": "DONALD H", "lname": "BUTTERWORTH", "hasphoto": true, "photo": null, "hometown": " BALTIMORE", "latitude": 39.23316, "longitude": -76.63663, "county": "BALTIMORE CITY"},
{"fname": "JAMES NORMAN", "lname": "BYERS", "hasphoto": true, "photo": null, "hometown": " WESTMINSTER", "latitude": 42.08089, "longitude": -80.14089, "county": "CARROLL"},
{"fname": "NOLAN DARYL", "lname": "BYRD", "hasphoto": true, "photo": null, "hometown": " HAGERSTOWN", "latitude": -77, "longitude": 39, "county": "WASHINGTON"},
{"fname": "NORMAN CECIL", "lname": "BYRD", "hasphoto": true, "photo": null, "hometown": " BALTIMORE", "latitude": 39.23316, "longitude": -76.63663, "county": "BALTIMORE CITY"},
{"fname": "DONALD PATRICK", "lname": "CALDWELL", "hasphoto": true, "photo": null, "hometown": " BERWYN HEIGHTS", "latitude": 38.994, "longitude": -76.91053, "county": "PRINCE GEORGES"},
{"fname": "GERALD LEE", "lname": "CALL", "hasphoto": true, "photo": null, "hometown": " ABERDEEN", "latitude": 39.50956, "longitude": -76.16412, "county": "HARFORD"},
{"fname": "VINCENT JOHN", "lname": "ANASTASIO", "hasphoto": true, "photo": null, "hometown": " BALTIMORE", "latitude": 39.23316, "longitude": -76.63663, "county": "BALTIMORE CITY"},
{"fname": "JOHN HENRY III", "lname": "CALL", "hasphoto": true, "photo": null, "hometown": " POTOMAC", "latitude": 39.56759, "longitude": -78.83891, "county": "MONTGOMERY"},
{"fname": "FRANCIS EDWARD JR", "lname": "CAMDEN", "hasphoto": true, "photo": null, "hometown": " WHEATON", "latitude": 39.03983, "longitude": -77.05526, "county": "MONTGOMERY"},
{"fname": "JOHN HOLMES JR", "lname": "CAMP", "hasphoto": true, "photo": null, "hometown": "WASHINGTON DC", "latitude": -77, "longitude": 39, "county": "OTHER"},
{"fname": "DARRELL EDWARD", "lname": "CAMPANELLO", "hasphoto": true, "photo": null, "hometown": " SILVER SPRING", "latitude": 38.99067, "longitude": -77.02609, "county": "MONTGOMERY"},
{"fname": "JACK EDWIN", "lname": "CAMPBELL", "hasphoto": true, "photo": null, "hometown": " OELLA", "latitude": 39.274, "longitude": -76.78664, "county": "BALTIMORE"},
{"fname": "WILLIAM LADD", "lname": "CAMPBELL", "hasphoto": true, "photo": null, "hometown": " SILVER HILL", "latitude": 39.45621, "longitude": -77.31443, "county": "PRINCE GEORGES"},
{"fname": "GARY EDWARD", "lname": "CANAPP", "hasphoto": true, "photo": null, "hometown": " BALTIMORE", "latitude": 39.23316, "longitude": -76.63663, "county": "BALTIMORE CITY"},
{"fname": "JAMES KENNETH", "lname": "CANIFORD", "hasphoto": true, "photo": null, "hometown": " FREDERICK", "latitude": 39.294, "longitude": -76.59636, "county": "FREDERICK"},
{"fname": "JAMES B JR", "lname": "CANNINGTON", "hasphoto": true, "photo": null, "hometown": " BALTIMORE", "latitude": 39.23316, "longitude": -76.63663, "county": "BALTIMORE CITY"},
{"fname": "DENNIS RICHARD", "lname": "CANTLER", "hasphoto": true, "photo": null, "hometown": " BALTIMORE", "latitude": 39.23316, "longitude": -76.63663, "county": "BALTIMORE CITY"},
{"fname": "LARRY WAYNE", "lname": "ANDERSON", "hasphoto": true, "photo": null, "hometown": " BALTIMORE", "latitude": 39.23316, "longitude": -76.63663, "county": "BALTIMORE CITY"},
{"fname": "JOHN ALAN", "lname": "CAPASSO", "hasphoto": true, "photo": null, "hometown": " ROCKVILLE", "latitude": 39.93092, "longitude": -78.67113, "county": "MONTGOMERY"},
{"fname": "WOODROW FRANKLIN", "lname": "CARBAUGH", "hasphoto": true, "photo": null, "hometown": " THURMONT", "latitude": 39.62371, "longitude": -77.41082, "county": "FREDERICK"},
{"fname": "ROBERT MATTHEW", "lname": "CARLOZZI", "hasphoto": true, "photo": null, "hometown": " WHEATON", "latitude": 39.03983, "longitude": -77.05526, "county": "MONTGOMERY"},
{"fname": "JOSEPH KENNETH", "lname": "CARROLL", "hasphoto": true, "photo": null, "hometown": " BRYANS ROAD", "latitude": 38.62706, "longitude": -77.07303, "county": "CHARLES"},
{"fname": "ANDERSON JR", "lname": "CARTER", "hasphoto": true, "photo": null, "hometown": " BALTIMORE", "latitude": 39.23316, "longitude": -76.63663, "county": "BALTIMORE CITY"},
{"fname": "GEORGE ALBERT", "lname": "CARTER", "hasphoto": true, "photo": null, "hometown": " BALTIMORE", "latitude": 39.23316, "longitude": -76.63663, "county": "BALTIMORE CITY"},
{"fname": "HARVEY WILLIAM", "lname": "CARTER", "hasphoto": true, "photo": null, "hometown": " GLEN BURNIE", "latitude": 39.16261, "longitude": -76.62469, "county": "ANNE ARUNDEL"},
{"fname": "WALTER CORBIN", "lname": "CARTER", "hasphoto": true, "photo": null, "hometown": " REISTERSTOWN", "latitude": 39.46955, "longitude": -76.82942, "county": "BALTIMORE"},
{"fname": "JAMES GILBERT", "lname": "CASE", "hasphoto": true, "photo": null, "hometown": " CUMBERLAND", "latitude": 39.89924, "longitude": -79.96839, "county": "ALLEGANY"},
{"fname": "LEWIS EDGAR JR", "lname": "CASNER", "hasphoto": true, "photo": null, "hometown": " POTOMAC", "latitude": 39.56759, "longitude": -78.83891, "county": "MONTGOMERY"},
{"fname": "WILLIAM ALBERT", "lname": "ANDREWS", "hasphoto": true, "photo": null, "hometown": " BENEDICT", "latitude": 38.50929, "longitude": -76.67968, "county": "CHARLES"},
{"fname": "RONALD BRETT", "lname": "CASSELL", "hasphoto": true, "photo": null, "hometown": " BALTIMORE", "latitude": 39.23316, "longitude": -76.63663, "county": "BALTIMORE CITY"},
{"fname": "WILLIAM EDWARD", "lname": "CASSIDY", "hasphoto": true, "photo": null, "hometown": " BALTIMORE", "latitude": 39.23316, "longitude": -76.63663, "county": "BALTIMORE CITY"},
{"fname": "JOAQUIN", "lname": "CASTRO", "hasphoto": true, "photo": null, "hometown": " MOUNT RAINIER", "latitude": 38.9415, "longitude": -76.96498, "county": "PRINCE GEORGES"},
{"fname": "MAURICE P JR", "lname": "CHAPMAN", "hasphoto": true, "photo": null, "hometown": " HARWOOD", "latitude": 38.86539, "longitude": -76.61996, "county": "ANNE ARUNDEL"},
{"fname": "JOHN JOSEPH", "lname": "CHASE", "hasphoto": true, "photo": null, "hometown": " LAUREL", "latitude": 39.09928, "longitude": -76.84831, "county": "PRINCE GEORGES"},
{"fname": "JOHN LENWOOD", "lname": "CHASE", "hasphoto": true, "photo": null, "hometown": " LEXINGTON PARK", "latitude": 38.26679, "longitude": -76.45384, "county": "SAINT MARYS"},
{"fname": "ERVIN BENJAMIN", "lname": "CHERRY", "hasphoto": true, "photo": null, "hometown": " BALTIMORE", "latitude": 39.23316, "longitude": -76.63663, "county": "BALTIMORE CITY"},
{"fname": "EUGENE NATHANIEL", "lname": "CHESLEY", "hasphoto": true, "photo": null, "hometown": " BALTIMORE", "latitude": 39.23316, "longitude": -76.63663, "county": "BALTIMORE CITY"},
{"fname": "ROBERT RICHARD", "lname": "CHESSER", "hasphoto": true, "photo": null, "hometown": "HIGHLAND SPRINGS VA", "latitude": -77, "longitude": 39, "county": "OTHER"},
{"fname": "CALVIN JEFFERY", "lname": "CHILDRESS", "hasphoto": true, "photo": null, "hometown": " BALTIMORE", "latitude": 39.23316, "longitude": -76.63663, "county": "BALTIMORE CITY"},
{"fname": "JOHN ARTHUR JR", "lname": "ANSELL", "hasphoto": true, "photo": null, "hometown": " BLADENSBURG", "latitude": 38.93928, "longitude": -76.93386, "county": "PRINCE GEORGES"},
{"fname": "ALEXANDER SCHELEPH", "lname": "CHIN", "hasphoto": true, "photo": null, "hometown": " BALTIMORE", "latitude": 39.23316, "longitude": -76.63663, "county": "BALTIMORE CITY"},
{"fname": "ROBERT NORRIS", "lname": "CHINQUINA", "hasphoto": true, "photo": null, "hometown": " BALTIMORE", "latitude": 39.23316, "longitude": -76.63663, "county": "BALTIMORE CITY"},
{"fname": "LARRY VINCENT", "lname": "CHMIEL", "hasphoto": true, "photo": null, "hometown": " BALTIMORE", "latitude": 39.23316, "longitude": -76.63663, "county": "BALTIMORE CITY"},
{"fname": "WILLIAM J III", "lname": "CHRISTMAN", "hasphoto": true, "photo": null, "hometown": " GAITHERSBURG", "latitude": 39.14344, "longitude": -77.20137, "county": "MONTGOMERY"},
{"fname": "WAYNE EDWARD", "lname": "CHRISTOPHER", "hasphoto": true, "photo": null, "hometown": " LANSDOWNE", "latitude": 39.24511, "longitude": -76.66052, "county": "BALTIMORE"},
{"fname": "RUSSELL E.", "lname": "CILBERRY", "hasphoto": true, "photo": null, "hometown": "?", "latitude": -77, "longitude": 39, "county": "OTHER"},
{"fname": "LARRY MONROE", "lname": "CLARK", "hasphoto": true, "photo": null, "hometown": " OLNEY", "latitude": 39.15316, "longitude": -77.06692, "county": "MONTGOMERY"},
{"fname": "DAVID NELSON", "lname": "CLAYTON", "hasphoto": true, "photo": null, "hometown": " PERRYVILLE", "latitude": 39.56011, "longitude": -76.07134, "county": "CECIL"},
{"fname": "LIONEL TIMOTHY", "lname": "CLOVER", "hasphoto": true, "photo": null, "hometown": " COLLEGE PARK", "latitude": 39.00872, "longitude": -76.95109, "county": "PRINCE GEORGES"},
{"fname": "LEON", "lname": "COIT", "hasphoto": true, "photo": null, "hometown": " BALTIMORE", "latitude": 39.23316, "longitude": -76.63663, "county": "BALTIMORE CITY"},
{"fname": "PAUL ROBERT", "lname": "ANZELONE", "hasphoto": true, "photo": null, "hometown": " COLLEGE PARK", "latitude": 39.00872, "longitude": -76.95109, "county": "PRINCE GEORGES"},
{"fname": "ERNEST WESLEY", "lname": "COLE", "hasphoto": true, "photo": null, "hometown": " SILVER SPRING", "latitude": 38.99067, "longitude": -77.02609, "county": "MONTGOMERY"},
{"fname": "RAINER LOUIS", "lname": "COLE", "hasphoto": true, "photo": null, "hometown": " GAMBRILLS", "latitude": 39.06705, "longitude": -76.66524, "county": "ANNE ARUNDEL"},
{"fname": "RONALD ALLEN", "lname": "COLEMAN", "hasphoto": true, "photo": null, "hometown": " BALTIMORE", "latitude": 39.23316, "longitude": -76.63663, "county": "BALTIMORE CITY"},
{"fname": "GENE FRANCIS", "lname": "COLLIER", "hasphoto": true, "photo": null, "hometown": " BALTIMORE", "latitude": 39.23316, "longitude": -76.63663, "county": "BALTIMORE CITY"},
{"fname": "FRANCIS BRYANT", "lname": "CONCANNON", "hasphoto": true, "photo": null, "hometown": " FORESTVILLE", "latitude": 38.84511, "longitude": -76.87497, "county": "PRINCE GEORGES"},
{"fname": "AUDREY JULIUS", "lname": "COOK", "hasphoto": true, "photo": null, "hometown": " BALTIMORE", "latitude": 39.23316, "longitude": -76.63663, "county": "BALTIMORE CITY"},
{"fname": "DAVID RICHARD", "lname": "COOK", "hasphoto": true, "photo": null, "hometown": " BALTIMORE", "latitude": 39.23316, "longitude": -76.63663, "county": "BALTIMORE CITY"},
{"fname": "ROBERT WILKINSON", "lname": "COOK", "hasphoto": true, "photo": null, "hometown": " CLAIBORNE", "latitude": 38.83762, "longitude": -76.27773, "county": "TALBOT"},
{"fname": "WILMER PAUL", "lname": "COOK", "hasphoto": true, "photo": null, "hometown": " ANNAPOLIS", "latitude": 38.93956, "longitude": -76.46051, "county": "ANNE ARUNDEL"},
{"fname": "WILSON LEE", "lname": "COOK", "hasphoto": true, "photo": null, "hometown": " FREDERICK", "latitude": 39.294, "longitude": -76.59636, "county": "FREDERICK"},
{"fname": "CHARLES F", "lname": "ARMENTROUT", "hasphoto": true, "photo": null, "hometown": " BALTIMORE", "latitude": 39.23316, "longitude": -76.63663, "county": "BALTIMORE CITY"},
{"fname": "JAMES EDWARD", "lname": "COOLEY", "hasphoto": true, "photo": null, "hometown": " BALTIMORE", "latitude": 39.23316, "longitude": -76.63663, "county": "BALTIMORE CITY"},
{"fname": "OSCAR EDMOND", "lname": "COOPER", "hasphoto": true, "photo": null, "hometown": " BEL AIR", "latitude": 38.63095, "longitude": -76.92525, "county": "HARFORD"},
{"fname": "RICHARD WALLER JR", "lname": "COOPER", "hasphoto": true, "photo": null, "hometown": " SALISBURY", "latitude": 39.75286, "longitude": -79.08086, "county": "WICOMICO"},
{"fname": "GREGORY SCOTT", "lname": "COPENHAVER", "hasphoto": true, "photo": null, "hometown": " PORT DEPOSIT", "latitude": 39.60483, "longitude": -76.11523, "county": "CECIL"},
{"fname": "WILLIAM JENNINGS", "lname": "CORBIN", "hasphoto": true, "photo": null, "hometown": " JOPPA", "latitude": 39.43372, "longitude": -76.35774, "county": "HARFORD"},
{"fname": "GARY WAYNE", "lname": "COSGROVE", "hasphoto": true, "photo": null, "hometown": " FREDERICK", "latitude": 39.294, "longitude": -76.59636, "county": "FREDERICK"},
{"fname": "JEREMIAH FREDERICK", "lname": "COSTELLO", "hasphoto": true, "photo": null, "hometown": " CHEVY CHASE", "latitude": 38.97122, "longitude": -77.07637, "county": "MONTGOMERY"},
{"fname": "ROBERT LEE", "lname": "COTTMAN", "hasphoto": true, "photo": null, "hometown": " PRINCESS ANNE", "latitude": 36.75154, "longitude": -76.05299, "county": "SOMERSET"},
{"fname": "GEORGE MARION II", "lname": "COX", "hasphoto": true, "photo": null, "hometown": " BALTIMORE", "latitude": 39.23316, "longitude": -76.63663, "county": "BALTIMORE CITY"},
{"fname": "JEHU JUNIS JR", "lname": "COX", "hasphoto": true, "photo": null, "hometown": " BALTIMORE", "latitude": 39.23316, "longitude": -76.63663, "county": "BALTIMORE CITY"},
{"fname": "GREGORY VAN", "lname": "ARMSTEAD", "hasphoto": true, "photo": null, "hometown": " BALTIMORE", "latitude": 39.23316, "longitude": -76.63663, "county": "BALTIMORE CITY"},
{"fname": "KEVIN MARK", "lname": "COYNE", "hasphoto": true, "photo": null, "hometown": " SILVER SPRING", "latitude": 38.99067, "longitude": -77.02609, "county": "MONTGOMERY"},
{"fname": "EZRA DELANO", "lname": "CRAFT", "hasphoto": true, "photo": null, "hometown": " BALTIMORE", "latitude": 39.23316, "longitude": -76.63663, "county": "BALTIMORE CITY"},
{"fname": "DEAN JOHN", "lname": "CRAIG", "hasphoto": true, "photo": null, "hometown": " PASADENA", "latitude": 39.10733, "longitude": -76.57108, "county": "ANNE ARUNDEL"},
{"fname": "KENNETH D.", "lname": "CRAWFORD", "hasphoto": true, "photo": null, "hometown": "LONACONNG", "latitude": -77, "longitude": 39, "county": "ALLEGANY"},
{"fname": "CARL JOSEPH", "lname": "CREW", "hasphoto": true, "photo": null, "hometown": " BETTERTON", "latitude": 39.36595, "longitude": -76.06217, "county": "KENT"},
{"fname": "HARRY ELIAS JR", "lname": "CRISSEY", "hasphoto": true, "photo": null, "hometown": " BALTIMORE", "latitude": 39.23316, "longitude": -76.63663, "county": "BALTIMORE CITY"},
{"fname": "WOODROW CHARLES", "lname": "CRONKRITE", "hasphoto": true, "photo": null, "hometown": " SUITLAND", "latitude": 38.84872, "longitude": -76.92386, "county": "PRINCE GEORGES"},
{"fname": "GERALD LEE", "lname": "CROSBY", "hasphoto": true, "photo": null, "hometown": " ROCKVILLE", "latitude": 39.93092, "longitude": -78.67113, "county": "MONTGOMERY"},
{"fname": "DAVID PAUL", "lname": "CROZIER", "hasphoto": true, "photo": null, "hometown": " BALTIMORE", "latitude": 39.23316, "longitude": -76.63663, "county": "BALTIMORE CITY"},
{"fname": "VICTOR LINCOLN", "lname": "CRUMP", "hasphoto": true, "photo": null, "hometown": " BALTIMORE", "latitude": 39.23316, "longitude": -76.63663, "county": "BALTIMORE CITY"},
{"fname": "CHARLES JOSEPH", "lname": "ARMSTRONG", "hasphoto": true, "photo": null, "hometown": " LUTHERVILLE", "latitude": 39.42122, "longitude": -76.62608, "county": "BALTIMORE"},
{"fname": "DONALD CLAIR", "lname": "CRUTCHLEY", "hasphoto": true, "photo": null, "hometown": " BALTIMORE", "latitude": 39.23316, "longitude": -76.63663, "county": "BALTIMORE CITY"},
{"fname": "PAUL ANTHONY", "lname": "CUMBERLAND", "hasphoto": true, "photo": null, "hometown": " COLLEGE PARK", "latitude": 39.00872, "longitude": -76.95109, "county": "PRINCE GEORGES"},
{"fname": "JAMES R JR", "lname": "CUMBERPATCH", "hasphoto": true, "photo": null, "hometown": " BETHESDA", "latitude": 38.98067, "longitude": -77.10026, "county": "MONTGOMERY"},
{"fname": "RICHARD SAVAGE", "lname": "CUNNINGHAM", "hasphoto": true, "photo": null, "hometown": " SPENCERVILLE", "latitude": 39.11427, "longitude": -76.97831, "county": "MONTGOMERY"},
{"fname": "BERNARD EUGENE", "lname": "CURTIS", "hasphoto": true, "photo": null, "hometown": " UPPER MARLBORO", "latitude": -77, "longitude": 39, "county": "PRINCE GEORGES"},
{"fname": "JOSEPH PAUL", "lname": "CURTIS", "hasphoto": true, "photo": null, "hometown": " HOLLYWOOD", "latitude": 39.07511, "longitude": -76.5858, "county": "SAINT MARYS"},
{"fname": "HENRY DAVID", "lname": "CUSTEN", "hasphoto": true, "photo": null, "hometown": " WHEATON", "latitude": 39.03983, "longitude": -77.05526, "county": "MONTGOMERY"},
{"fname": "KENNETH JULIAN", "lname": "CYMBALSKI", "hasphoto": true, "photo": null, "hometown": " ROCKVILLE", "latitude": 39.93092, "longitude": -78.67113, "county": "MONTGOMERY"},
{"fname": "JOSEPH VERBERT", "lname": "CZAJKOWSKI", "hasphoto": true, "photo": null, "hometown": " BALTIMORE", "latitude": 39.23316, "longitude": -76.63663, "county": "BALTIMORE CITY"},
{"fname": "GARY ROBERT", "lname": "DAFFIN", "hasphoto": true, "photo": null, "hometown": " BALTIMORE", "latitude": 39.23316, "longitude": -76.63663, "county": "BALTIMORE CITY"},
{"fname": "CHARLES E JR", "lname": "ARONHALT", "hasphoto": true, "photo": null, "hometown": " CUMBERLAND", "latitude": 39.89924, "longitude": -79.96839, "county": "ALLEGANY"},
{"fname": "CHARLES RICHARD", "lname": "DALE", "hasphoto": true, "photo": null, "hometown": " GAITHERSBURG", "latitude": 39.14344, "longitude": -77.20137, "county": "MONTGOMERY"},
{"fname": "DENNIS HUMPHREY", "lname": "DALE", "hasphoto": true, "photo": null, "hometown": " BALTIMORE", "latitude": 39.23316, "longitude": -76.63663, "county": "BALTIMORE CITY"},
{"fname": "TOUSSAINT O JR", "lname": "DALTON", "hasphoto": true, "photo": null, "hometown": " BALTIMORE", "latitude": 39.23316, "longitude": -76.63663, "county": "BALTIMORE CITY"},
{"fname": "JOSEPH PETER", "lname": "DASTOLI", "hasphoto": true, "photo": null, "hometown": " CHILLUM", "latitude": 38.96372, "longitude": -76.99081, "county": "PRINCE GEORGES"},
{"fname": "WILLIAM JOHN", "lname": "DAUBERT", "hasphoto": true, "photo": null, "hometown": " EDEN", "latitude": 38.28068, "longitude": -75.65104, "county": "SOMERSET"},
{"fname": "DAVID ARTHUR", "lname": "DAVIDSON", "hasphoto": true, "photo": null, "hometown": " EAST RIVERDALE", "latitude": 38.96206, "longitude": -76.92192, "county": "PRINCE GEORGES"},
{"fname": "THOMAS RAYMOND", "lname": "DAVIS", "hasphoto": true, "photo": null, "hometown": " FROSTBURG", "latitude": 39.65814, "longitude": -78.92836, "county": "ALLEGANY"},
{"fname": "WILLIAM CLARENCE", "lname": "DAYTON", "hasphoto": true, "photo": null, "hometown": " ROSS NECK", "latitude": -77, "longitude": 39, "county": "DORCHESTER"},
{"fname": "JOHN CHARLES J", "lname": "DE MARR", "hasphoto": true, "photo": null, "hometown": " WHITE PLAINS", "latitude": 38.5904, "longitude": -76.94025, "county": "CHARLES"},
{"fname": "JOHN", "lname": "DE MEY", "hasphoto": true, "photo": null, "hometown": " ANNAPOLIS", "latitude": 38.93956, "longitude": -76.46051, "county": "ANNE ARUNDEL"},
{"fname": "JAMES OSCAR", "lname": "ARROWOOD", "hasphoto": true, "photo": null, "hometown": " CUMBERLAND", "latitude": 39.89924, "longitude": -79.96839, "county": "ALLEGANY"},
{"fname": "ROBERT WILLIAM", "lname": "ERNATHY", "hasphoto": true, "photo": null, "hometown": " ROCKVILLE", "latitude": 39.93092, "longitude": -78.67113, "county": "MONTGOMERY"},
{"fname": "CARL ANDREW", "lname": "DEAN", "hasphoto": true, "photo": null, "hometown": " EDGEWATER", "latitude": 38.95706, "longitude": -76.54996, "county": "ANNE ARUNDEL"},
{"fname": "JAMES JEROME JR", "lname": "DEASEL", "hasphoto": true, "photo": null, "hometown": " BALTIMORE", "latitude": 39.23316, "longitude": -76.63663, "county": "BALTIMORE CITY"},
{"fname": "KENNETH LAMAR JR", "lname": "DEAVERS", "hasphoto": true, "photo": null, "hometown": " WILLIAMSPORT", "latitude": 39.60065, "longitude": -77.82055, "county": "WASHINGTON"},
{"fname": "PATRICK A JR", "lname": "DECK", "hasphoto": true, "photo": null, "hometown": " CHEVY CHASE", "latitude": 38.97122, "longitude": -77.07637, "county": "MONTGOMERY"},
{"fname": "STEVEN WILLIAM", "lname": "DECKER", "hasphoto": true, "photo": null, "hometown": " WOODLAWN", "latitude": 39.32288, "longitude": -76.72803, "county": "PRINCE GEORGES"},
{"fname": "MICHAEL THOMAS", "lname": "DEFIBAUGH", "hasphoto": true, "photo": null, "hometown": " BALTIMORE", "latitude": 39.23316, "longitude": -76.63663, "county": "BALTIMORE CITY"},
{"fname": "EDWARD PAUL III", "lname": "DEIBEL", "hasphoto": true, "photo": null, "hometown": " BALTIMORE", "latitude": 39.23316, "longitude": -76.63663, "county": "BALTIMORE CITY"},
{"fname": "GORDON JAMES JR", "lname": "DEITZ", "hasphoto": true, "photo": null, "hometown": " PASADENA", "latitude": 39.10733, "longitude": -76.57108, "county": "ANNE ARUNDEL"},
{"fname": "THOMAS MITCHELL", "lname": "DEITZ", "hasphoto": true, "photo": null, "hometown": " BALTIMORE", "latitude": 39.23316, "longitude": -76.63663, "county": "BALTIMORE CITY"},
{"fname": "GEORGE ALLEN", "lname": "DEMBY", "hasphoto": true, "photo": null, "hometown": " CHURCHVILLE", "latitude": 39.56122, "longitude": -76.24551, "county": "HARFORD"},
{"fname": "JAMES MITCHELL", "lname": "ATCHISON", "hasphoto": true, "photo": null, "hometown": " FREDERICK", "latitude": 39.294, "longitude": -76.59636, "county": "FREDERICK"},
{"fname": "CARROLL EDWARD", "lname": "DERRILL", "hasphoto": true, "photo": null, "hometown": " BALTIMORE", "latitude": 39.23316, "longitude": -76.63663, "county": "BALTIMORE CITY"},
{"fname": "EDWARD J JR", "lname": "DEVINCENT", "hasphoto": true, "photo": null, "hometown": " BALTIMORE", "latitude": 39.23316, "longitude": -76.63663, "county": "BALTIMORE CITY"},
{"fname": "ROBERT L", "lname": "DEVOE", "hasphoto": true, "photo": null, "hometown": "NORRISVILLE", "latitude": 39.70483, "longitude": -76.53469, "county": "HARFORD"},
{"fname": "TIMOTHY MORGAN", "lname": "DICK", "hasphoto": true, "photo": null, "hometown": "GREENSBURG PA", "latitude": -77, "longitude": 39, "county": "OTHER"},
{"fname": "RUSSELL W", "lname": "DICKENS", "hasphoto": true, "photo": null, "hometown": " PINEY POINT", "latitude": 38.14235, "longitude": -76.50745, "county": "SAINT MARYS"},
{"fname": "JAMES EGBERT", "lname": "DICKERSON", "hasphoto": true, "photo": null, "hometown": " COLLEGE PARK", "latitude": 39.00872, "longitude": -76.95109, "county": "PRINCE GEORGES"},
{"fname": "ROBERT BOLT III", "lname": "DICKERSON", "hasphoto": true, "photo": null, "hometown": " HYATTSVILLE", "latitude": 38.95594, "longitude": -76.94553, "county": "PRINCE GEORGES"},
{"fname": "TOMMY EUGENE", "lname": "DICKERSON", "hasphoto": true, "photo": null, "hometown": " ROCKVILLE", "latitude": 39.93092, "longitude": -78.67113, "county": "MONTGOMERY"},
{"fname": "CARROLL STEPHEN", "lname": "DIEUDONNE", "hasphoto": true, "photo": null, "hometown": " SILVER SPRING", "latitude": 38.99067, "longitude": -77.02609, "county": "MONTGOMERY"},
{"fname": "MICHAEL", "lname": "DIGENNO", "hasphoto": true, "photo": null, "hometown": " HURLOCK", "latitude": 38.62428, "longitude": -75.85438, "county": "DORCHESTER"},
{"fname": "FRANCIS MATTHEW", "lname": "AUD", "hasphoto": true, "photo": null, "hometown": " GREAT MILLS", "latitude": 38.23679, "longitude": -76.49718, "county": "SAINT MARYS"},
{"fname": "LINDEN BROOK", "lname": "DIXON", "hasphoto": true, "photo": null, "hometown": " BERWYN HEIGHTS", "latitude": 38.994, "longitude": -76.91053, "county": "PRINCE GEORGES"},
{"fname": "WILLIAM ALLEN", "lname": "DIXON", "hasphoto": true, "photo": null, "hometown": " ACCIDENT", "latitude": 39.6287, "longitude": -79.31976, "county": "WASHINGTON"},
{"fname": "GEORGE HARLAND", "lname": "DIZE", "hasphoto": true, "photo": null, "hometown": " CRISFIELD", "latitude": 39.47039, "longitude": -76.32496, "county": "SOMERSET"},
{"fname": "JAMES ERWIN", "lname": "DODD", "hasphoto": true, "photo": null, "hometown": " FORT RITCHIE", "latitude": 39.70221, "longitude": -77.50218, "county": "WASHINGTON"},
{"fname": "THOMAS ALBERT", "lname": "DOLAN", "hasphoto": true, "photo": null, "hometown": " BALTIMORE", "latitude": 39.23316, "longitude": -76.63663, "county": "BALTIMORE CITY"},
{"fname": "WELLINGTON MARTIN", "lname": "DONAHUE", "hasphoto": true, "photo": null, "hometown": " CUMBERLAND", "latitude": 39.89924, "longitude": -79.96839, "county": "ALLEGANY"},
{"fname": "EVERETTE LEROY", "lname": "DONALDSON", "hasphoto": true, "photo": null, "hometown": " BALTIMORE", "latitude": 39.23316, "longitude": -76.63663, "county": "BALTIMORE CITY"},
{"fname": "ROBERT DANIEL", "lname": "DONALDSON", "hasphoto": true, "photo": null, "hometown": " DICKERSON", "latitude": 39.2201, "longitude": -77.42415, "county": "MONTGOMERY"},
{"fname": "LAWRENCE HENRY", "lname": "DONNELL", "hasphoto": true, "photo": null, "hometown": " ANNAPOLIS", "latitude": 38.93956, "longitude": -76.46051, "county": "ANNE ARUNDEL"},
{"fname": "DONALD RALPH", "lname": "DORMAN", "hasphoto": true, "photo": null, "hometown": " WEST HYATTSVILLE", "latitude": -77, "longitude": 39, "county": "PRINCE GEORGES"},
{"fname": "DAVID RYAN", "lname": "AUGUSTUS", "hasphoto": true, "photo": null, "hometown": " BALTIMORE", "latitude": 39.23316, "longitude": -76.63663, "county": "BALTIMORE CITY"},
{"fname": "GARDNER", "lname": "DORSEY", "hasphoto": true, "photo": null, "hometown": " CROWNSVILLE", "latitude": 39.02844, "longitude": -76.60135, "county": "ANNE ARUNDEL"},
{"fname": "JAMES R JR", "lname": "DORSEY", "hasphoto": true, "photo": null, "hometown": " CLEMENTS", "latitude": 38.32624, "longitude": -76.72719, "county": "SAINT MARYS"},
{"fname": "LUTHER JAMES JR", "lname": "DOSS", "hasphoto": true, "photo": null, "hometown": " GLEN BURNIE", "latitude": 39.16261, "longitude": -76.62469, "county": "ANNE ARUNDEL"},
{"fname": "TIMOTHY CALVIN", "lname": "DRAKE", "hasphoto": true, "photo": null, "hometown": " RIVERDALE", "latitude": 39.09928, "longitude": -76.5358, "county": "PRINCE GEORGES"},
{"fname": "WALTER LLOYD", "lname": "DROSD", "hasphoto": true, "photo": null, "hometown": " KENSINGTON", "latitude": 39.08317, "longitude": -76.57996, "county": "MONTGOMERY"},
{"fname": "BRUCE CHALMERS", "lname": "DUCAT", "hasphoto": true, "photo": null, "hometown": " BETHESDA", "latitude": 38.98067, "longitude": -77.10026, "county": "MONTGOMERY"},
{"fname": "BARRY WILLIAM", "lname": "DUFF", "hasphoto": true, "photo": null, "hometown": " BALTIMORE", "latitude": 39.23316, "longitude": -76.63663, "county": "BALTIMORE CITY"},
{"fname": "JAMES HENRY JR", "lname": "DUFFETT", "hasphoto": true, "photo": null, "hometown": " BALTIMORE", "latitude": 39.23316, "longitude": -76.63663, "county": "BALTIMORE CITY"},
{"fname": "FRANK MELVIN JR", "lname": "DUNSMORE", "hasphoto": true, "photo": null, "hometown": " LANHAM", "latitude": 38.96706, "longitude": -76.86192, "county": "PRINCE GEORGES"},
{"fname": "RONALD WAYNE", "lname": "DURBIN", "hasphoto": true, "photo": null, "hometown": " CUMBERLAND", "latitude": 39.89924, "longitude": -79.96839, "county": "ALLEGANY"},
{"fname": "JOHN WILLIAM", "lname": "AVELLEYRA", "hasphoto": true, "photo": null, "hometown": " MOUNT RAINIER", "latitude": 38.9415, "longitude": -76.96498, "county": "PRINCE GEORGES"},
{"fname": "STEPHEN MICHAEL", "lname": "DYDYNSKI", "hasphoto": true, "photo": null, "hometown": " HYATTSVILLE", "latitude": 38.95594, "longitude": -76.94553, "county": "PRINCE GEORGES"},
{"fname": "LARRY EUGENE", "lname": "DYER", "hasphoto": true, "photo": null, "hometown": " OXON HILL", "latitude": 38.80345, "longitude": -76.9897, "county": "PRINCE GEORGES"},
{"fname": "LESLIE MILTON JR", "lname": "DYSON", "hasphoto": true, "photo": null, "hometown": " TAKOMA PARK", "latitude": 38.97789, "longitude": -77.00748, "county": "MONTGOMERY"},
{"fname": "JOSEPH MILTON", "lname": "EASON", "hasphoto": true, "photo": null, "hometown": " EASTON", "latitude": 36.84181, "longitude": -76.19188, "county": "TALBOT"},
{"fname": "TERRY LEE", "lname": "ECKER", "hasphoto": true, "photo": null, "hometown": " BALTIMORE", "latitude": 39.23316, "longitude": -76.63663, "county": "BALTIMORE CITY"},
{"fname": "HARRY LEON", "lname": "ECTON", "hasphoto": true, "photo": null, "hometown": " BOONSBORO", "latitude": 38.95011, "longitude": -75.85994, "county": "WASHINGTON"},
{"fname": "WILLIAM JOHN", "lname": "EDER", "hasphoto": true, "photo": null, "hometown": " BALTIMORE", "latitude": 39.23316, "longitude": -76.63663, "county": "BALTIMORE CITY"},
{"fname": "JOHN PAUL", "lname": "EDWARDS", "hasphoto": true, "photo": null, "hometown": " BALTIMORE", "latitude": 39.23316, "longitude": -76.63663, "county": "BALTIMORE CITY"},
{"fname": "CARL M", "lname": "EGOLF", "hasphoto": true, "photo": null, "hometown": " WESTMINSTER", "latitude": 42.08089, "longitude": -80.14089, "county": "CARROLL"},
{"fname": "RAYMOND LESTER", "lname": "ELLIOTT", "hasphoto": true, "photo": null, "hometown": " CHESTERTOWN", "latitude": -77, "longitude": 39, "county": "QUEEN ANNE"},
{"fname": "JACQUE JOSEPH", "lname": "AYD", "hasphoto": true, "photo": null, "hometown": " BALTIMORE", "latitude": 39.23316, "longitude": -76.63663, "county": "BALTIMORE CITY"},
{"fname": "GEORGE LEMUEL", "lname": "ELLIS", "hasphoto": true, "photo": null, "hometown": " GLEN ECHO", "latitude": 38.969, "longitude": -77.14248, "county": "MONTGOMERY"},
{"fname": "STEWART CHARLES", "lname": "EMERSON", "hasphoto": true, "photo": null, "hometown": " SUNDERLAND", "latitude": 38.67123, "longitude": -76.59801, "county": "CALVERT"},
{"fname": "LAMONT GEORGE", "lname": "EPPS", "hasphoto": true, "photo": null, "hometown": " BALTIMORE", "latitude": 39.23316, "longitude": -76.63663, "county": "BALTIMORE CITY"},
{"fname": "CECIL VAUGHN", "lname": "EVANS", "hasphoto": true, "photo": null, "hometown": " SALISBURY", "latitude": 39.75286, "longitude": -79.08086, "county": "WICOMICO"},
{"fname": "JEFFREY ALAN", "lname": "EVANS", "hasphoto": true, "photo": null, "hometown": " BALTIMORE", "latitude": 39.23316, "longitude": -76.63663, "county": "BALTIMORE CITY"},
{"fname": "JOHN CHARLES", "lname": "FAIDLEY", "hasphoto": true, "photo": null, "hometown": "NORFOLK VA", "latitude": -77, "longitude": 39, "county": "OTHER"},
{"fname": "EARL JR", "lname": "FAISON", "hasphoto": true, "photo": null, "hometown": " CATONSVILLE", "latitude": 39.27205, "longitude": -76.73192, "county": "BALTIMORE"},
{"fname": "BRYANT D", "lname": "FANNIN", "hasphoto": true, "photo": null, "hometown": " BALTIMORE", "latitude": 39.23316, "longitude": -76.63663, "county": "BALTIMORE CITY"},
{"fname": "CHARLES EDWARD", "lname": "FARMER", "hasphoto": true, "photo": null, "hometown": " BALTIMORE", "latitude": 39.23316, "longitude": -76.63663, "county": "BALTIMORE CITY"},
{"fname": "JOHN HARVEY", "lname": "FEEZER", "hasphoto": true, "photo": null, "hometown": " MARRIOTTSVILLE", "latitude": 39.3501, "longitude": -76.89942, "county": "CARROLL"},
{"fname": "EDWARD FRANKLIN", "lname": "AYERS", "hasphoto": true, "photo": null, "hometown": " EASTON", "latitude": 36.84181, "longitude": -76.19188, "county": "TALBOT"},
{"fname": "EDWARD WILLIAM JR", "lname": "FELL", "hasphoto": true, "photo": null, "hometown": " BALTIMORE", "latitude": 39.23316, "longitude": -76.63663, "county": "BALTIMORE CITY"},
{"fname": "GUY TALMADGE JR", "lname": "FLETCHER", "hasphoto": true, "photo": null, "hometown": " BALTIMORE", "latitude": 39.23316, "longitude": -76.63663, "county": "BALTIMORE CITY"},
{"fname": "RALPH PRESTON JR", "lname": "FLINT", "hasphoto": true, "photo": null, "hometown": " HAGERSTOWN", "latitude": -77, "longitude": 39, "county": "WASHINGTON"},
{"fname": "ORLANDO", "lname": "FLONORY", "hasphoto": true, "photo": null, "hometown": " BALTIMORE", "latitude": 39.23316, "longitude": -76.63663, "county": "BALTIMORE CITY"},
{"fname": "CHARLES LAWRENCE", "lname": "FLOTT", "hasphoto": true, "photo": null, "hometown": " CHEVY CHASE", "latitude": 38.97122, "longitude": -77.07637, "county": "MONTGOMERY"},
{"fname": "LEWIS JOHN", "lname": "FOGLER", "hasphoto": true, "photo": null, "hometown": " GLEN BURNIE", "latitude": 39.16261, "longitude": -76.62469, "county": "ANNE ARUNDEL"},
{"fname": "NORMAN ARCHIE", "lname": "FOSSETT", "hasphoto": true, "photo": null, "hometown": " BALTIMORE", "latitude": 39.23316, "longitude": -76.63663, "county": "BALTIMORE CITY"},
{"fname": "WILLIAM HENRY", "lname": "FOSTER", "hasphoto": true, "photo": null, "hometown": " SEVERN", "latitude": 39.13705, "longitude": -76.6983, "county": "ANNE ARUNDEL"},
{"fname": "WILLIAM EDWARD", "lname": "FOWLER", "hasphoto": true, "photo": null, "hometown": " BALTIMORE", "latitude": 39.23316, "longitude": -76.63663, "county": "BALTIMORE CITY"},
{"fname": "THOMAS WALTER", "lname": "FOY", "hasphoto": true, "photo": null, "hometown": " BALTIMORE", "latitude": 39.23316, "longitude": -76.63663, "county": "BALTIMORE CITY"},
{"fname": "LELAND ALSTON", "lname": "BAILEY", "hasphoto": true, "photo": null, "hometown": " BALTIMORE", "latitude": 39.23316, "longitude": -76.63663, "county": "BALTIMORE CITY"},
{"fname": "CLAYTON EUGENE", "lname": "FRALEY", "hasphoto": true, "photo": null, "hometown": " GAITHERSBURG", "latitude": 39.14344, "longitude": -77.20137, "county": "MONTGOMERY"},
{"fname": "PHILLIP STANLEY", "lname": "FRANCE", "hasphoto": true, "photo": null, "hometown": " BALTIMORE", "latitude": 39.23316, "longitude": -76.63663, "county": "BALTIMORE CITY"},
{"fname": "MARSHALL FRANKLIN", "lname": "FRENG", "hasphoto": true, "photo": null, "hometown": " ELKTON", "latitude": 39.61511, "longitude": -75.83355, "county": "CECIL"},
{"fname": "CLARENCE", "lname": "FULTON", "hasphoto": true, "photo": null, "hometown": " BALTIMORE", "latitude": 39.23316, "longitude": -76.63663, "county": "BALTIMORE CITY"},
{"fname": "WILLIAM ROBERT JR", "lname": "FURLONG", "hasphoto": true, "photo": null, "hometown": " BALTIMORE", "latitude": 39.23316, "longitude": -76.63663, "county": "BALTIMORE CITY"},
{"fname": "ROBERT MICHAEL", "lname": "GAFFIGAN", "hasphoto": true, "photo": null, "hometown": " SILVER SPRING", "latitude": 38.99067, "longitude": -77.02609, "county": "MONTGOMERY"},
{"fname": "EDWARD ALBERT", "lname": "GAFFNEY", "hasphoto": true, "photo": null, "hometown": " BALTIMORE", "latitude": 39.23316, "longitude": -76.63663, "county": "BALTIMORE CITY"},
{"fname": "ROBERT WAYNE", "lname": "GARDNER", "hasphoto": true, "photo": null, "hometown": " WHEATON", "latitude": 39.03983, "longitude": -77.05526, "county": "MONTGOMERY"},
{"fname": "KURT WILLIAM", "lname": "GAREISS", "hasphoto": true, "photo": null, "hometown": " ANNAPOLIS", "latitude": 38.93956, "longitude": -76.46051, "county": "ANNE ARUNDEL"},
{"fname": "RODGER LYNN", "lname": "GARLICK", "hasphoto": true, "photo": null, "hometown": "FRIENDSVILLE", "latitude": 39.66369, "longitude": -79.40532, "county": "GARRETT"},
{"fname": "TOLLIE", "lname": "BAILEY", "hasphoto": true, "photo": null, "hometown": " BALTIMORE", "latitude": 39.23316, "longitude": -76.63663, "county": "BALTIMORE CITY"},
{"fname": "MICHAEL ANTHONY", "lname": "GARRIS", "hasphoto": true, "photo": null, "hometown": " BALTIMORE", "latitude": 39.23316, "longitude": -76.63663, "county": "BALTIMORE CITY"},
{"fname": "FRED HORATIO II", "lname": "GATES", "hasphoto": true, "photo": null, "hometown": " CENTREVILLE", "latitude": 39.05483, "longitude": -76.07356, "county": "QUEEN ANNE"},
{"fname": "STEPHEN JONATHAN", "lname": "GEIST", "hasphoto": true, "photo": null, "hometown": " SILVER SPRING", "latitude": 38.99067, "longitude": -77.02609, "county": "MONTGOMERY"},
{"fname": "CHARLES EDWARD", "lname": "GENTRY", "hasphoto": true, "photo": null, "hometown": " CUMBERLAND", "latitude": 39.89924, "longitude": -79.96839, "county": "ALLEGANY"},
{"fname": "STEPHEN FREDERICK", "lname": "GEORGE", "hasphoto": true, "photo": null, "hometown": "HOLLIDAYSBURG PA", "latitude": -77, "longitude": 39, "county": "OTHER"},
{"fname": "JAMES FITZROY", "lname": "GHEE", "hasphoto": true, "photo": null, "hometown": " BALTIMORE", "latitude": 39.23316, "longitude": -76.63663, "county": "BALTIMORE CITY"},
{"fname": "MICHAEL E", "lname": "GIBIS", "hasphoto": true, "photo": null, "hometown": " GAMBRILLS", "latitude": 39.06705, "longitude": -76.66524, "county": "ANNE ARUNDEL"},
{"fname": "JOHN CHRISTOPHER", "lname": "GIBSON", "hasphoto": true, "photo": null, "hometown": " HYATTSVILLE", "latitude": 38.95594, "longitude": -76.94553, "county": "PRINCE GEORGES"},
{"fname": "FRANKLIN BRADLEY", "lname": "GILBERT", "hasphoto": true, "photo": null, "hometown": " HAVRE DE GRACE", "latitude": 39.54928, "longitude": -76.09162, "county": "HARFORD"},
{"fname": "GEORGE HARVEY", "lname": "GILLIAM", "hasphoto": true, "photo": null, "hometown": " BALTIMORE", "latitude": 39.23316, "longitude": -76.63663, "county": "BALTIMORE CITY"},
{"fname": "FREDERICK NORMAN", "lname": "BAKER", "hasphoto": true, "photo": null, "hometown": " CUMBERLAND", "latitude": 39.89924, "longitude": -79.96839, "county": "ALLEGANY"},
{"fname": "RONALD STUART", "lname": "GILLIAM", "hasphoto": true, "photo": null, "hometown": " HYATTSVILLE", "latitude": 38.95594, "longitude": -76.94553, "county": "PRINCE GEORGES"},
{"fname": "EDWARD RALPH JR", "lname": "GLENN", "hasphoto": true, "photo": null, "hometown": " HAGERSTOWN", "latitude": -77, "longitude": 39, "county": "WASHINGTON"},
{"fname": "RICHARD WALTER", "lname": "GODEN", "hasphoto": true, "photo": null, "hometown": " BALTIMORE", "latitude": 39.23316, "longitude": -76.63663, "county": "BALTIMORE CITY"},
{"fname": "EARL ARTHUR", "lname": "GODMAN", "hasphoto": true, "photo": null, "hometown": " BALTIMORE", "latitude": 39.23316, "longitude": -76.63663, "county": "BALTIMORE CITY"},
{"fname": "PAUL STEPHEN", "lname": "GOGGIN", "hasphoto": true, "photo": null, "hometown": "MORGANTOWN WV", "latitude": -77, "longitude": 39, "county": "OTHER"},
{"fname": "BENJAMIN NILES", "lname": "GOLDBERG", "hasphoto": true, "photo": null, "hometown": " BALTIMORE", "latitude": 39.23316, "longitude": -76.63663, "county": "BALTIMORE CITY"},
{"fname": "STEWART B", "lname": "GOLDBERG", "hasphoto": true, "photo": null, "hometown": " BALTIMORE", "latitude": 39.23316, "longitude": -76.63663, "county": "BALTIMORE CITY"},
{"fname": "EDWARD ENOCH III", "lname": "GOLDER", "hasphoto": true, "photo": null, "hometown": " BALTIMORE", "latitude": 39.23316, "longitude": -76.63663, "county": "BALTIMORE CITY"},
{"fname": "EDWARD LEON", "lname": "GOODMAN", "hasphoto": true, "photo": null, "hometown": " ANNAPOLIS", "latitude": 38.93956, "longitude": -76.46051, "county": "ANNE ARUNDEL"},
{"fname": "MICHAEL EDWARD", "lname": "GORDY", "hasphoto": true, "photo": null, "hometown": " SNOW HILL", "latitude": 39.08344, "longitude": -76.84914, "county": "WORCESTER"},
{"fname": "JAMES HOWARD JR", "lname": "BAKER", "hasphoto": true, "photo": null, "hometown": " BALTIMORE", "latitude": 39.23316, "longitude": -76.63663, "county": "BALTIMORE CITY"},
{"fname": "WILLIAM WALLACE", "lname": "ABSHEAR", "hasphoto": true, "photo": null, "hometown": " HILLCREST HEIGHTS", "latitude": 39.15205, "longitude": -76.89192, "county": "PRINCE GEORGES"},
{"fname": "GEORGE MEDFORD JR", "lname": "GORRERA", "hasphoto": true, "photo": null, "hometown": " BALTIMORE", "latitude": 39.23316, "longitude": -76.63663, "county": "BALTIMORE CITY"},
{"fname": "ROLAND ALLEN", "lname": "GORSCHBOTH", "hasphoto": true, "photo": null, "hometown": " BALTIMORE", "latitude": 39.23316, "longitude": -76.63663, "county": "BALTIMORE CITY"},
{"fname": "JACK MARTIN", "lname": "GOSNELL", "hasphoto": true, "photo": null, "hometown": " BALTIMORE", "latitude": 39.23316, "longitude": -76.63663, "county": "BALTIMORE CITY"},
{"fname": "CALVIN KYRLE JR", "lname": "GRAESER", "hasphoto": true, "photo": null, "hometown": "WAYNE PA", "latitude": -77, "longitude": 39, "county": "OTHER"},
{"fname": "JAMES ALBERT", "lname": "GRAHAM", "hasphoto": true, "photo": null, "hometown": " FROSTBURG", "latitude": 39.65814, "longitude": -78.92836, "county": "ALLEGANY"},
{"fname": "AMBROSIO SALAZAR", "lname": "GRANDEA", "hasphoto": true, "photo": null, "hometown": " BALTIMORE", "latitude": 39.23316, "longitude": -76.63663, "county": "BALTIMORE CITY"},
{"fname": "JOHN WILLIAM", "lname": "GRASER", "hasphoto": true, "photo": null, "hometown": " FREDERICK", "latitude": 39.294, "longitude": -76.59636, "county": "FREDERICK"},
{"fname": "WILLIAM D", "lname": "GRAVES", "hasphoto": true, "photo": null, "hometown": " FORT HOLABIRD", "latitude": -77, "longitude": 39, "county": "BALTIMORE"},
{"fname": "CHARLES GONZIE", "lname": "GRAY", "hasphoto": true, "photo": null, "hometown": " BRANDYWINE", "latitude": 38.69678, "longitude": -76.84775, "county": "PRINCE GEORGES"},
{"fname": "FRANCIS GARFIELD", "lname": "GRAY", "hasphoto": true, "photo": null, "hometown": " LAUREL", "latitude": 39.09928, "longitude": -76.84831, "county": "PRINCE GEORGES"},
{"fname": "RONALD", "lname": "BAKER", "hasphoto": true, "photo": null, "hometown": " INDIAN HEAD", "latitude": 38.60012, "longitude": -77.1622, "county": "CHARLES"},
{"fname": "EDDIE", "lname": "GREEN", "hasphoto": true, "photo": null, "hometown": " BALTIMORE", "latitude": 39.23316, "longitude": -76.63663, "county": "BALTIMORE CITY"},
{"fname": "LARRY", "lname": "GREEN", "hasphoto": true, "photo": null, "hometown": " BALTIMORE", "latitude": 39.23316, "longitude": -76.63663, "county": "BALTIMORE CITY"},
{"fname": "THOMAS OWEN", "lname": "GREEN", "hasphoto": true, "photo": null, "hometown": " JESSUP", "latitude": 39.14927, "longitude": -76.77525, "county": "HOWARD"},
{"fname": "WALTER JR", "lname": "GREEN", "hasphoto": true, "photo": null, "hometown": " BALTIMORE", "latitude": 39.23316, "longitude": -76.63663, "county": "BALTIMORE CITY"},
{"fname": "JOHN ARTHUR", "lname": "GREENFIELD", "hasphoto": true, "photo": null, "hometown": " HUGHESVILLE", "latitude": 38.53262, "longitude": -76.78386, "county": "CHARLES"},
{"fname": "THOMAS JR", "lname": "GREGORY", "hasphoto": true, "photo": null, "hometown": " BALTIMORE", "latitude": 39.23316, "longitude": -76.63663, "county": "BALTIMORE CITY"},
{"fname": "MICHAEL ALLEN", "lname": "GRIGGS", "hasphoto": true, "photo": null, "hometown": " BOWIE", "latitude": 38.94278, "longitude": -76.73028, "county": "PRINCE GEORGES"},
{"fname": "ROBERT ROXBURGH", "lname": "GROOM", "hasphoto": true, "photo": null, "hometown": " ROCKVILLE", "latitude": 39.93092, "longitude": -78.67113, "county": "MONTGOMERY"},
{"fname": "MURIEL STANLEY", "lname": "GROOMES", "hasphoto": true, "photo": null, "hometown": " HAMPSTEAD", "latitude": 39.60483, "longitude": -76.84998, "county": "CARROLL"},
{"fname": "KENNETH EDWARD", "lname": "GROVE", "hasphoto": true, "photo": null, "hometown": " PARKTON", "latitude": 39.64094, "longitude": -76.65914, "county": "BALTIMORE"},
{"fname": "VERNON R", "lname": "BAKER", "hasphoto": true, "photo": null, "hometown": " BALTIMORE", "latitude": 39.23316, "longitude": -76.63663, "county": "BALTIMORE CITY"},
{"fname": "DONALD MAURICE", "lname": "GUTRICK", "hasphoto": true, "photo": null, "hometown": " NANJEMOY", "latitude": 38.45484, "longitude": -77.21692, "county": "CHARLES"},
{"fname": "TATE TALMAGE III", "lname": "HACKNEY", "hasphoto": true, "photo": null, "hometown": " HILLSIDE", "latitude": 39.58955, "longitude": -76.95665, "county": "PRINCE GEORGES"},
{"fname": "JAMES BUCKNER", "lname": "HALL", "hasphoto": true, "photo": null, "hometown": " ROCKVILLE", "latitude": 39.93092, "longitude": -78.67113, "county": "MONTGOMERY"},
{"fname": "JOHN STERLING", "lname": "HALL", "hasphoto": true, "photo": null, "hometown": " BALTIMORE", "latitude": 39.23316, "longitude": -76.63663, "county": "BALTIMORE CITY"},
{"fname": "DENNIS JOSEPH", "lname": "HAMET", "hasphoto": true, "photo": null, "hometown": " BALTIMORE", "latitude": 39.23316, "longitude": -76.63663, "county": "BALTIMORE CITY"},
{"fname": "STEVE WESTLEL", "lname": "HARRIS", "hasphoto": true, "photo": null, "hometown": " ROCKVILLE", "latitude": 39.93092, "longitude": -78.67113, "county": "MONTGOMERY"},
{"fname": "PAUL LEROY", "lname": "HARRISON", "hasphoto": true, "photo": null, "hometown": " HYATTSVILLE", "latitude": 38.95594, "longitude": -76.94553, "county": "PRINCE GEORGES"},
{"fname": "DAVID MELDRUM", "lname": "HART", "hasphoto": true, "photo": null, "hometown": " WHEATON", "latitude": 39.03983, "longitude": -77.05526, "county": "MONTGOMERY"},
{"fname": "EUGENE WINFIELD", "lname": "HARTMAN", "hasphoto": true, "photo": null, "hometown": " SILVER SPRING", "latitude": 38.99067, "longitude": -77.02609, "county": "MONTGOMERY"},
{"fname": "ROBERT WILLARD", "lname": "HARTSOCK", "hasphoto": true, "photo": null, "hometown": " CUMBERLAND", "latitude": 39.89924, "longitude": -79.96839, "county": "ALLEGANY"},
{"fname": "ROBERT LLOYD", "lname": "BALDWIN", "hasphoto": true, "photo": null, "hometown": " EDGEWATER", "latitude": 38.95706, "longitude": -76.54996, "county": "ANNE ARUNDEL"},
{"fname": "CLAYBURN MC GEE", "lname": "HATCHER", "hasphoto": true, "photo": null, "hometown": " BALTIMORE", "latitude": 39.23316, "longitude": -76.63663, "county": "BALTIMORE CITY"},
{"fname": "STEPHEN LAWRENCE", "lname": "HAVAS", "hasphoto": true, "photo": null, "hometown": " CAMP SPRINGS", "latitude": 38.804, "longitude": -76.90664, "county": "PRINCE GEORGES"},
{"fname": "LEROY ANTHONY", "lname": "HAYES", "hasphoto": true, "photo": null, "hometown": " BALTIMORE", "latitude": 39.23316, "longitude": -76.63663, "county": "BALTIMORE CITY"},
{"fname": "RICHARD EDWARD", "lname": "HAYES", "hasphoto": true, "photo": null, "hometown": " BRYANS ROAD", "latitude": 38.62706, "longitude": -77.07303, "county": "CHARLES"},
{"fname": "LEWIS MORRISON", "lname": "HAYWARD", "hasphoto": true, "photo": null, "hometown": "POCOMOKE", "latitude": 38.07568, "longitude": -75.56798, "county": "SOMERSET"},
{"fname": "JAMES BENEDICT", "lname": "HEARD", "hasphoto": true, "photo": null, "hometown": " HOLLYWOOD", "latitude": 39.07511, "longitude": -76.5858, "county": "SAINT MARYS"},
{"fname": "HOWARD BOYD", "lname": "HENRY", "hasphoto": true, "photo": null, "hometown": " BALTIMORE", "latitude": 39.23316, "longitude": -76.63663, "county": "BALTIMORE CITY"},
{"fname": "ALVAH WORRELL JR", "lname": "HENSON", "hasphoto": true, "photo": null, "hometown": " LAUREL", "latitude": 39.09928, "longitude": -76.84831, "county": "PRINCE GEORGES"},
{"fname": "ROBERT LANCE", "lname": "HETTINGER", "hasphoto": true, "photo": null, "hometown": " BALTIMORE", "latitude": 39.23316, "longitude": -76.63663, "county": "BALTIMORE CITY"},
{"fname": "NORMAN EDWARD JR", "lname": "HICKS", "hasphoto": true, "photo": null, "hometown": " BALTIMORE", "latitude": 39.23316, "longitude": -76.63663, "county": "BALTIMORE CITY"},
{"fname": "HENRY M", "lname": "BARCE", "hasphoto": true, "photo": null, "hometown": "?", "latitude": -77, "longitude": 39, "county": "OTHER"},
{"fname": "SILAS LUCAS JR", "lname": "HICKS", "hasphoto": true, "photo": null, "hometown": " HYATTSVILLE", "latitude": 38.95594, "longitude": -76.94553, "county": "PRINCE GEORGES"},
{"fname": "WILLIAM HANDSOME", "lname": "HOUSE", "hasphoto": true, "photo": null, "hometown": " RIDGELY", "latitude": 38.94789, "longitude": -75.88438, "county": "CAROLINE"},
{"fname": "WILLIS FRANCIS", "lname": "HOUSE", "hasphoto": true, "photo": null, "hometown": " GLEN BURNIE", "latitude": 39.16261, "longitude": -76.62469, "county": "ANNE ARUNDEL"},
{"fname": "THOMAS CARR JEFFER", "lname": "HUBARD", "hasphoto": true, "photo": null, "hometown": " DARLINGTON", "latitude": 39.63927, "longitude": -76.20273, "county": "HARFORD"},
{"fname": "ERNEST JOSEPH", "lname": "HUGHES", "hasphoto": true, "photo": null, "hometown": " BALTIMORE", "latitude": 39.23316, "longitude": -76.63663, "county": "BALTIMORE CITY"},
{"fname": "MARION BENNETT JR", "lname": "HUGHES", "hasphoto": true, "photo": null, "hometown": " SALISBURY", "latitude": 39.75286, "longitude": -79.08086, "county": "WICOMICO"},
{"fname": "WALTER VINCENT", "lname": "HULINGS", "hasphoto": true, "photo": null, "hometown": " BALTIMORE", "latitude": 39.23316, "longitude": -76.63663, "county": "BALTIMORE CITY"},
{"fname": "IRA HENRY", "lname": "HULLIHEN", "hasphoto": true, "photo": null, "hometown": " BALTIMORE", "latitude": 39.23316, "longitude": -76.63663, "county": "BALTIMORE CITY"},
{"fname": "RICHARD DAVID", "lname": "HUMPHREY", "hasphoto": true, "photo": null, "hometown": " EAST RIVERDALE", "latitude": 38.96206, "longitude": -76.92192, "county": "PRINCE GEORGES"},
{"fname": "STEPHEN JOSEPH", "lname": "HUSKEY", "hasphoto": true, "photo": null, "hometown": " LANDOVER", "latitude": 38.934, "longitude": -76.89664, "county": "PRINCE GEORGES"},
{"fname": "FREDERICK ALLEN", "lname": "BARCLAY", "hasphoto": true, "photo": null, "hometown": " SILVER SPRING", "latitude": 38.99067, "longitude": -77.02609, "county": "MONTGOMERY"},
{"fname": "KURT CHRISTOPHER", "lname": "HUSSMANN", "hasphoto": true, "photo": null, "hometown": " HYATTSVILLE", "latitude": 38.95594, "longitude": -76.94553, "county": "PRINCE GEORGES"},
{"fname": "JOHN FRANKLIN", "lname": "HUTZELL", "hasphoto": true, "photo": null, "hometown": " WILLIAMSPORT", "latitude": 39.60065, "longitude": -77.82055, "county": "WASHINGTON"},
{"fname": "HAROLD EUGENE JR", "lname": "IMLER", "hasphoto": true, "photo": null, "hometown": " BALTIMORE", "latitude": 39.23316, "longitude": -76.63663, "county": "BALTIMORE CITY"},
{"fname": "TULLIO PATRICK JR", "lname": "IODICE", "hasphoto": true, "photo": null, "hometown": " PARKVILLE", "latitude": 39.37733, "longitude": -76.53969, "county": "BALTIMORE"},
{"fname": "PHILLIP EARL", "lname": "IRELAND", "hasphoto": true, "photo": null, "hometown": " TRAPPE", "latitude": 38.65845, "longitude": -76.058, "county": "TALBOT"},
{"fname": "HARRY RICHARD", "lname": "ITALIANO", "hasphoto": true, "photo": null, "hometown": " SUITLAND", "latitude": 38.84872, "longitude": -76.92386, "county": "PRINCE GEORGES"},
{"fname": "ROBERT ANTHONY", "lname": "ITZOE", "hasphoto": true, "photo": null, "hometown": " BALTIMORE", "latitude": 39.23316, "longitude": -76.63663, "county": "BALTIMORE CITY"},
{"fname": "ANGUS N", "lname": "JACKSON", "hasphoto": true, "photo": null, "hometown": " BALTIMORE", "latitude": 39.23316, "longitude": -76.63663, "county": "BALTIMORE CITY"},
{"fname": "CARROLL THOMAS", "lname": "JACKSON", "hasphoto": true, "photo": null, "hometown": " PRINCESS ANNE", "latitude": 36.75154, "longitude": -76.05299, "county": "SOMERSET"},
{"fname": "CHARLES ANTHONY", "lname": "JAMACK", "hasphoto": true, "photo": null, "hometown": " EDGEWOOD", "latitude": 39.45955, "longitude": -77.47415, "county": "HARFORD"},
{"fname": "KENNETH PAUL JR", "lname": "BARKLEY", "hasphoto": true, "photo": null, "hometown": " CUMBERLAND", "latitude": 39.89924, "longitude": -79.96839, "county": "ALLEGANY"},
{"fname": "FRANKLIN THEODORE", "lname": "JAMES", "hasphoto": true, "photo": null, "hometown": " BALTIMORE", "latitude": 39.23316, "longitude": -76.63663, "county": "BALTIMORE CITY"},
{"fname": "PERRY DEAN", "lname": "JAMES", "hasphoto": true, "photo": null, "hometown": " BALTIMORE", "latitude": 39.23316, "longitude": -76.63663, "county": "BALTIMORE CITY"},
{"fname": "ROLAND IRA", "lname": "JEFFERSON", "hasphoto": true, "photo": null, "hometown": " BALTIMORE", "latitude": 39.23316, "longitude": -76.63663, "county": "BALTIMORE CITY"},
{"fname": "CECIL RAYMOND", "lname": "JENKINS", "hasphoto": true, "photo": null, "hometown": " TAYLORS ISLAND", "latitude": 38.46901, "longitude": -76.29911, "county": "DORCHESTER"},
{"fname": "PHILIP PAUL", "lname": "JENKINS", "hasphoto": true, "photo": null, "hometown": " BALTIMORE", "latitude": 39.23316, "longitude": -76.63663, "county": "BALTIMORE CITY"},
{"fname": "DONALD MELVIN", "lname": "JENNINGS", "hasphoto": true, "photo": null, "hometown": " BALTIMORE", "latitude": 39.23316, "longitude": -76.63663, "county": "BALTIMORE CITY"},
{"fname": "JAMES LEWIS", "lname": "JENNINGS", "hasphoto": true, "photo": null, "hometown": " BALTIMORE", "latitude": 39.23316, "longitude": -76.63663, "county": "BALTIMORE CITY"},
{"fname": "FRANK HOWARD", "lname": "JOHNS", "hasphoto": true, "photo": null, "hometown": " BALTIMORE", "latitude": 39.23316, "longitude": -76.63663, "county": "BALTIMORE CITY"},
{"fname": "VERNON ZIGMAN", "lname": "JOHNS", "hasphoto": true, "photo": null, "hometown": " BALTIMORE", "latitude": 39.23316, "longitude": -76.63663, "county": "BALTIMORE CITY"},
{"fname": "DAVID RUDOLPH", "lname": "JOHNSON", "hasphoto": true, "photo": null, "hometown": " BROOKLYN PARK", "latitude": 39.22844, "longitude": -76.61636, "county": "ANNE ARUNDEL"},
{"fname": "HAROLD EDWARD", "lname": "BARNARD", "hasphoto": true, "photo": null, "hometown": " SILVER SPRING", "latitude": 38.99067, "longitude": -77.02609, "county": "MONTGOMERY"},
{"fname": "ENOCH", "lname": "JOHNSON", "hasphoto": true, "photo": null, "hometown": " BALTIMORE", "latitude": 39.23316, "longitude": -76.63663, "county": "BALTIMORE CITY"},
{"fname": "EUGENE MELVIN JR", "lname": "JOHNSON", "hasphoto": true, "photo": null, "hometown": " BALTIMORE", "latitude": 39.23316, "longitude": -76.63663, "county": "BALTIMORE CITY"},
{"fname": "JOHN HENRY JR", "lname": "JOHNSON", "hasphoto": true, "photo": null, "hometown": " BALTIMORE", "latitude": 39.23316, "longitude": -76.63663, "county": "BALTIMORE CITY"},
{"fname": "JAMES", "lname": "LOSPINUSO", "hasphoto": true, "photo": null, "hometown": " LAUREL", "latitude": 39.09928, "longitude": -76.84831, "county": "PRINCE GEORGES"},
{"fname": "JAMES EDWARD", "lname": "LOVE", "hasphoto": true, "photo": null, "hometown": " SILVER SPRING", "latitude": 38.99067, "longitude": -77.02609, "county": "MONTGOMERY"},
{"fname": "KENNETH HARLEN", "lname": "LOVE", "hasphoto": true, "photo": null, "hometown": " BALTIMORE", "latitude": 39.23316, "longitude": -76.63663, "county": "BALTIMORE CITY"},
{"fname": "RICHARD HOMER", "lname": "LOWERY", "hasphoto": true, "photo": null, "hometown": " ELLERSLIE", "latitude": 39.72064, "longitude": -78.77419, "county": "ALLEGANY"},
{"fname": "ALLEN LEE", "lname": "LUCAS", "hasphoto": true, "photo": null, "hometown": " PASADENA", "latitude": 39.10733, "longitude": -76.57108, "county": "ANNE ARUNDEL"},
{"fname": "WILLIAM WAYNE", "lname": "LUMSDEN", "hasphoto": true, "photo": null, "hometown": " COMPTON", "latitude": 38.27513, "longitude": -76.69302, "county": "SAINT MARYS"},
{"fname": "WAYNE THOMAS", "lname": "LUNDELL", "hasphoto": true, "photo": null, "hometown": " SILVER SPRING", "latitude": 38.99067, "longitude": -77.02609, "county": "MONTGOMERY"},
{"fname": "BARRIE VANE", "lname": "BARNES", "hasphoto": true, "photo": null, "hometown": " SALISBURY", "latitude": 39.75286, "longitude": -79.08086, "county": "WICOMICO"},
{"fname": "WILMER THOMAS", "lname": "LUTZ", "hasphoto": true, "photo": null, "hometown": " BALTIMORE", "latitude": 39.23316, "longitude": -76.63663, "county": "BALTIMORE CITY"},
{"fname": "BALFOUR OLIVER JR", "lname": "LYTTON", "hasphoto": true, "photo": null, "hometown": " ROCKVILLE", "latitude": 39.93092, "longitude": -78.67113, "county": "MONTGOMERY"},
{"fname": "NEIL KIRK", "lname": "MAC IVER", "hasphoto": true, "photo": null, "hometown": " TAKOMA PARK", "latitude": 38.97789, "longitude": -77.00748, "county": "MONTGOMERY"},
{"fname": "DONALD C JR", "lname": "MAC LAUGHLIN", "hasphoto": true, "photo": null, "hometown": " BALTIMORE", "latitude": 39.23316, "longitude": -76.63663, "county": "BALTIMORE CITY"},
{"fname": "JAMES S JR", "lname": "MAC VICKAR", "hasphoto": true, "photo": null, "hometown": " ANNAPOLIS", "latitude": 38.93956, "longitude": -76.46051, "county": "ANNE ARUNDEL"},
{"fname": "ARTHUR WEBSTER III", "lname": "MACHEN", "hasphoto": true, "photo": null, "hometown": " RUXTON", "latitude": 39.40011, "longitude": -76.64469, "county": "BALTIMORE"},
{"fname": "EARL", "lname": "MACK", "hasphoto": true, "photo": null, "hometown": " CAMBRIDGE", "latitude": 39.64955, "longitude": -77.01915, "county": "DORCHESTER"},
{"fname": "RAYMOND LOUIS", "lname": "MACKLIN", "hasphoto": true, "photo": null, "hometown": " BALTIMORE", "latitude": 39.23316, "longitude": -76.63663, "county": "BALTIMORE CITY"},
{"fname": "JAMES ROBERT", "lname": "MACY", "hasphoto": true, "photo": null, "hometown": " BALTIMORE", "latitude": 39.23316, "longitude": -76.63663, "county": "BALTIMORE CITY"},
{"fname": "FREDERICK JOHN", "lname": "MAGSAMEN", "hasphoto": true, "photo": null, "hometown": " WESTMINSTER", "latitude": 42.08089, "longitude": -80.14089, "county": "CARROLL"},
{"fname": "JOHN HOWARD", "lname": "BARNES", "hasphoto": true, "photo": null, "hometown": " BALTIMORE", "latitude": 39.23316, "longitude": -76.63663, "county": "BALTIMORE CITY"},
{"fname": "FRANK RONALD", "lname": "MANELLO", "hasphoto": true, "photo": null, "hometown": " BALTIMORE", "latitude": 39.23316, "longitude": -76.63663, "county": "BALTIMORE CITY"},
{"fname": "THEODORE EDWARD JR", "lname": "MANGUM", "hasphoto": true, "photo": null, "hometown": " SILVER SPRING", "latitude": 38.99067, "longitude": -77.02609, "county": "MONTGOMERY"},
{"fname": "AUGUST GORDIAN JR", "lname": "MANNION", "hasphoto": true, "photo": null, "hometown": " BALTIMORE", "latitude": 39.23316, "longitude": -76.63663, "county": "BALTIMORE CITY"},
{"fname": "FREDERICK LUTHER", "lname": "MARCH", "hasphoto": true, "photo": null, "hometown": " BALTIMORE", "latitude": 39.23316, "longitude": -76.63663, "county": "BALTIMORE CITY"},
{"fname": "LEE ERNEST JR", "lname": "MARSH", "hasphoto": true, "photo": null, "hometown": " BALTIMORE", "latitude": 39.23316, "longitude": -76.63663, "county": "BALTIMORE CITY"},
{"fname": "HAROLD DOUGLAS", "lname": "MARTIN", "hasphoto": true, "photo": null, "hometown": " SILVER SPRING", "latitude": 38.99067, "longitude": -77.02609, "county": "MONTGOMERY"},
{"fname": "ROBERT HARRISON JR", "lname": "MARTIN", "hasphoto": true, "photo": null, "hometown": " CUMBERLAND", "latitude": 39.89924, "longitude": -79.96839, "county": "ALLEGANY"},
{"fname": "CHARLES GILBERT", "lname": "MASON", "hasphoto": true, "photo": null, "hometown": " CHEVERLY", "latitude": 38.92817, "longitude": -76.91581, "county": "PRINCE GEORGES"},
{"fname": "RAYMOND LEROY", "lname": "MASON", "hasphoto": true, "photo": null, "hometown": " BALTIMORE", "latitude": 39.23316, "longitude": -76.63663, "county": "BALTIMORE CITY"},
{"fname": "ROBERT DAVID", "lname": "MASON", "hasphoto": true, "photo": null, "hometown": " ROCKVILLE", "latitude": 39.93092, "longitude": -78.67113, "county": "MONTGOMERY"},
{"fname": "OTTO PHILIP", "lname": "BARNHART", "hasphoto": true, "photo": null, "hometown": " HANCOCK", "latitude": 39.69898, "longitude": -78.17973, "county": "WASHINGTON"},
{"fname": "RONALD M", "lname": "ADAMS", "hasphoto": true, "photo": null, "hometown": " CASCADE", "latitude": 39.71093, "longitude": -77.48943, "county": "WASHINGTON"},
{"fname": "GEORGE EDGAR", "lname": "MASSIE", "hasphoto": true, "photo": null, "hometown": " CLEAR SPRING", "latitude": 39.65621, "longitude": -77.93166, "county": "WASHINGTON"},
{"fname": "DONALD JAMES JR", "lname": "MATTARO", "hasphoto": true, "photo": null, "hometown": " LANGLEY PARK", "latitude": 38.98872, "longitude": -76.98136, "county": "PRINCE GEORGES"},
{"fname": "GEORGE MICHAEL", "lname": "MATTINGLY", "hasphoto": true, "photo": null, "hometown": " OXON HILL", "latitude": 38.80345, "longitude": -76.9897, "county": "PRINCE GEORGES"},
{"fname": "HARRY ALBERT JR", "lname": "MATTINGLY", "hasphoto": true, "photo": null, "hometown": " ESSEX", "latitude": 39.30927, "longitude": -76.47496, "county": "BALTIMORE"},
{"fname": "DAVID MURRAY", "lname": "MAY", "hasphoto": true, "photo": null, "hometown": " HYATTSVILLE", "latitude": 38.95594, "longitude": -76.94553, "county": "PRINCE GEORGES"},
{"fname": "ROBERT WILLIAM", "lname": "MAZZA", "hasphoto": true, "photo": null, "hometown": " BALTIMORE", "latitude": 39.23316, "longitude": -76.63663, "county": "BALTIMORE CITY"},
{"fname": "DONALD C JR", "lname": "MC ALLISTER", "hasphoto": true, "photo": null, "hometown": " ELKTON", "latitude": 39.61511, "longitude": -75.83355, "county": "CECIL"},
{"fname": "JEROME DANNIE", "lname": "MC ARTHUR", "hasphoto": true, "photo": null, "hometown": " BALTIMORE", "latitude": 39.23316, "longitude": -76.63663, "county": "BALTIMORE CITY"},
{"fname": "PHILIP JAMES", "lname": "MC CARTHY", "hasphoto": true, "photo": null, "hometown": " BALTIMORE", "latitude": 39.23316, "longitude": -76.63663, "county": "BALTIMORE CITY"},
{"fname": "THOMAS WELLER", "lname": "MC CARTHY", "hasphoto": true, "photo": null, "hometown": " CHEVY CHASE", "latitude": 38.97122, "longitude": -77.07637, "county": "MONTGOMERY"},
{"fname": "LARRY M", "lname": "BARNHILL", "hasphoto": true, "photo": null, "hometown": " BALTIMORE", "latitude": 39.23316, "longitude": -76.63663, "county": "BALTIMORE CITY"},
{"fname": "DONALD LEE", "lname": "MC CLANAHAN", "hasphoto": true, "photo": null, "hometown": " POINT PLEASANT", "latitude": 39.17872, "longitude": -76.58747, "county": "ANNE ARUNDEL"},
{"fname": "CHARLES THOMAS", "lname": "MC CORKLE", "hasphoto": true, "photo": null, "hometown": " BRADSHAW", "latitude": 39.42316, "longitude": -76.38107, "county": "BALTIMORE"},
{"fname": "STANLEY EUGENE", "lname": "MC CREARY", "hasphoto": true, "photo": null, "hometown": " HAVRE DE GRACE", "latitude": 39.54928, "longitude": -76.09162, "county": "HARFORD"},
{"fname": "JOHNNY ANDERSON", "lname": "MC DANIELS", "hasphoto": true, "photo": null, "hometown": " BALTIMORE", "latitude": 39.23316, "longitude": -76.63663, "county": "BALTIMORE CITY"},
{"fname": "JOSEPH F III", "lname": "MC DERMOTT", "hasphoto": true, "photo": null, "hometown": " COLLEGE PARK", "latitude": 39.00872, "longitude": -76.95109, "county": "PRINCE GEORGES"},
{"fname": "ROY LAWRENCE", "lname": "MC DONALD", "hasphoto": true, "photo": null, "hometown": " CUMBERLAND", "latitude": 39.89924, "longitude": -79.96839, "county": "ALLEGANY"},
{"fname": "JOHN ARTHUR", "lname": "MC GINN", "hasphoto": true, "photo": null, "hometown": " SILVER SPRING", "latitude": 38.99067, "longitude": -77.02609, "county": "MONTGOMERY"},
{"fname": "JAMES GERALD", "lname": "MC GOVERN", "hasphoto": true, "photo": null, "hometown": " RIVERDALE", "latitude": 39.09928, "longitude": -76.5358, "county": "PRINCE GEORGES"},
{"fname": "WILLIAM LEWIS", "lname": "MC GOWAN", "hasphoto": true, "photo": null, "hometown": " SILVER SPRING", "latitude": 38.99067, "longitude": -77.02609, "county": "MONTGOMERY"},
{"fname": "HOMER CLEO JR", "lname": "MC INTYRE", "hasphoto": true, "photo": null, "hometown": "WASHINGTON DC", "latitude": -77, "longitude": 39, "county": "OTHER"},
{"fname": "ALBERT LEWIS JR", "lname": "BARTHELME", "hasphoto": true, "photo": null, "hometown": " TOWSON", "latitude": 39.39761, "longitude": -76.57886, "county": "BALTIMORE"},
{"fname": "ALEX LEON", "lname": "MC LEAN", "hasphoto": true, "photo": null, "hometown": " BALTIMORE", "latitude": 39.23316, "longitude": -76.63663, "county": "BALTIMORE CITY"},
{"fname": "DON THOMAS", "lname": "O SHELL", "hasphoto": true, "photo": null, "hometown": " BALTIMORE", "latitude": 39.23316, "longitude": -76.63663, "county": "BALTIMORE CITY"},
{"fname": "WILLIAM LYNN", "lname": "OAKLEY", "hasphoto": true, "photo": null, "hometown": " BALTIMORE", "latitude": 39.23316, "longitude": -76.63663, "county": "BALTIMORE CITY"},
{"fname": "RONALD", "lname": "OGLESBY", "hasphoto": true, "photo": null, "hometown": " BALTIMORE", "latitude": 39.23316, "longitude": -76.63663, "county": "BALTIMORE CITY"},
{"fname": "JAMES BRUCE", "lname": "OKANE", "hasphoto": true, "photo": null, "hometown": " LAUREL", "latitude": 39.09928, "longitude": -76.84831, "county": "PRINCE GEORGES"},
{"fname": "ERNEST ARTHUR", "lname": "OLDS", "hasphoto": true, "photo": null, "hometown": " SALISBURY", "latitude": 39.75286, "longitude": -79.08086, "county": "WICOMICO"},
{"fname": "TONY SYLVESTER", "lname": "OLIVER", "hasphoto": true, "photo": null, "hometown": " BALTIMORE", "latitude": 39.23316, "longitude": -76.63663, "county": "BALTIMORE CITY"},
{"fname": "JAMES TIMOTHY", "lname": "ONEILL", "hasphoto": true, "photo": null, "hometown": " BALTIMORE", "latitude": 39.23316, "longitude": -76.63663, "county": "BALTIMORE CITY"},
{"fname": "MICHAEL WILLIAM", "lname": "ORASH", "hasphoto": true, "photo": null, "hometown": " BALTIMORE", "latitude": 39.23316, "longitude": -76.63663, "county": "BALTIMORE CITY"},
{"fname": "KYLIS THEROD", "lname": "PAYNE", "hasphoto": true, "photo": null, "hometown": " BALTIMORE", "latitude": 39.23316, "longitude": -76.63663, "county": "BALTIMORE CITY"},
{"fname": "KENNETH LEONARD", "lname": "BARTLEY", "hasphoto": true, "photo": null, "hometown": " MITCHELLVILLE", "latitude": 38.92511, "longitude": -76.74275, "county": "PRINCE GEORGES"},
{"fname": "LOUIS SR", "lname": "PAYNE", "hasphoto": true, "photo": null, "hometown": " MOUNT RANIER", "latitude": -77, "longitude": 39, "county": "PRINCE GEORGES"},
{"fname": "WALTER FRANKLIN", "lname": "PAYNE", "hasphoto": true, "photo": null, "hometown": " BALTIMORE", "latitude": 39.23316, "longitude": -76.63663, "county": "BALTIMORE CITY"},
{"fname": "NORMAN JAMES", "lname": "PEARSON", "hasphoto": true, "photo": null, "hometown": " HERRON", "latitude": -77, "longitude": 39, "county": "WICOMICO"},
{"fname": "RUDOLPH", "lname": "PEARSON", "hasphoto": true, "photo": null, "hometown": " BALTIMORE", "latitude": 39.23316, "longitude": -76.63663, "county": "BALTIMORE CITY"},
{"fname": "DOUGLASS FRANKLIN", "lname": "PEAY", "hasphoto": true, "photo": null, "hometown": " BALTIMORE", "latitude": 39.23316, "longitude": -76.63663, "county": "BALTIMORE CITY"},
{"fname": "DAVID BURTON", "lname": "PEGG", "hasphoto": true, "photo": null, "hometown": " ELLICOTT CITY", "latitude": -77, "longitude": 39, "county": "HOWARD"},
{"fname": "JOHN FRANCIS", "lname": "PENDER", "hasphoto": true, "photo": null, "hometown": " DISTRICT HEIGHTS", "latitude": 38.85761, "longitude": -76.88942, "county": "PRINCE GEORGES"},
{"fname": "PAUL PATRICK", "lname": "PENNINGTON", "hasphoto": true, "photo": null, "hometown": " BALTIMORE", "latitude": 39.23316, "longitude": -76.63663, "county": "BALTIMORE CITY"},
{"fname": "DANIEL L", "lname": "PENSON", "hasphoto": true, "photo": null, "hometown": " BALTIMORE", "latitude": 39.23316, "longitude": -76.63663, "county": "BALTIMORE CITY"},
{"fname": "CALVIN MOORE", "lname": "PERKINS", "hasphoto": true, "photo": null, "hometown": " BALTIMORE", "latitude": 39.23316, "longitude": -76.63663, "county": "BALTIMORE CITY"},
{"fname": "JAMES LEON", "lname": "BATES", "hasphoto": true, "photo": null, "hometown": " BOWIE", "latitude": 38.94278, "longitude": -76.73028, "county": "PRINCE GEORGES"},
{"fname": "WILLIAM ARTHUR JR", "lname": "PERKINS", "hasphoto": true, "photo": null, "hometown": " BALTIMORE", "latitude": 39.23316, "longitude": -76.63663, "county": "BALTIMORE CITY"},
{"fname": "NORMAND PAUL", "lname": "PERRON", "hasphoto": true, "photo": null, "hometown": " GLEN BURNIE", "latitude": 39.16261, "longitude": -76.62469, "county": "ANNE ARUNDEL"},
{"fname": "BENJAMIN F JR", "lname": "PHILLIPS", "hasphoto": true, "photo": null, "hometown": " TILGHMAN", "latitude": 38.71706, "longitude": -76.33439, "county": "TALBOT"},
{"fname": "FREDERICK ALLEN", "lname": "PHOEBUS", "hasphoto": true, "photo": null, "hometown": " BALTIMORE", "latitude": 39.23316, "longitude": -76.63663, "county": "BALTIMORE CITY"},
{"fname": "MICHAEL ALLEN", "lname": "PIACENTINO", "hasphoto": true, "photo": null, "hometown": " BALTIMORE", "latitude": 39.23316, "longitude": -76.63663, "county": "BALTIMORE CITY"},
{"fname": "HARVEY TYRONE", "lname": "PINKNEY", "hasphoto": true, "photo": null, "hometown": " LOTHIAN", "latitude": 38.83178, "longitude": -76.61135, "county": "ANNE ARUNDEL"},
{"fname": "CHARLES ROBERT", "lname": "PITTINGER", "hasphoto": true, "photo": null, "hometown": " THURMONT", "latitude": 39.62371, "longitude": -77.41082, "county": "FREDERICK"},
{"fname": "JOHN FRANCIS", "lname": "PLUNKARD", "hasphoto": true, "photo": null, "hometown": " FREDERICK", "latitude": 39.294, "longitude": -76.59636, "county": "FREDERICK"},
{"fname": "JOHN RAYMOND", "lname": "POE", "hasphoto": true, "photo": null, "hometown": " LAUREL", "latitude": 39.09928, "longitude": -76.84831, "county": "PRINCE GEORGES"},
{"fname": "ROBERT LEE JR", "lname": "POSEY", "hasphoto": true, "photo": null, "hometown": " SAVAGE", "latitude": 39.13789, "longitude": -76.82386, "county": "HOWARD"},
{"fname": "MELVIN CARROLL JR", "lname": "BATES", "hasphoto": true, "photo": null, "hometown": " BALTIMORE", "latitude": 39.23316, "longitude": -76.63663, "county": "BALTIMORE CITY"},
{"fname": "ERNEST", "lname": "POSTORINO", "hasphoto": true, "photo": null, "hometown": " ROCKVILLE", "latitude": 39.93092, "longitude": -78.67113, "county": "MONTGOMERY"},
{"fname": "ALBERT RAYMOND", "lname": "POTTER", "hasphoto": true, "photo": null, "hometown": "GOLDSBORO", "latitude": 39.034, "longitude": -75.7866, "county": "CAROLINE"},
{"fname": "ROBERT JAMES", "lname": "POTTS", "hasphoto": true, "photo": null, "hometown": " BALTIMORE", "latitude": 39.23316, "longitude": -76.63663, "county": "BALTIMORE CITY"},
{"fname": "GEORGE THOMAS", "lname": "POWELL", "hasphoto": true, "photo": null, "hometown": " SALISBURY", "latitude": 39.75286, "longitude": -79.08086, "county": "WICOMICO"},
{"fname": "RAYMOND JR", "lname": "POWELL", "hasphoto": true, "photo": null, "hometown": " BALTIMORE", "latitude": 39.23316, "longitude": -76.63663, "county": "BALTIMORE CITY"},
{"fname": "VERNIE HOMER", "lname": "POWERS", "hasphoto": true, "photo": null, "hometown": " BALTIMORE", "latitude": 39.23316, "longitude": -76.63663, "county": "BALTIMORE CITY"},
{"fname": "JAMES W", "lname": "PRATHER", "hasphoto": true, "photo": null, "hometown": " GAITHERSBURG", "latitude": 39.14344, "longitude": -77.20137, "county": "MONTGOMERY"},
{"fname": "MARK JOSEPH", "lname": "PREIS", "hasphoto": true, "photo": null, "hometown": " BALTIMORE", "latitude": 39.23316, "longitude": -76.63663, "county": "BALTIMORE CITY"},
{"fname": "ARTHUR ONEILL", "lname": "PRENDERGAST", "hasphoto": true, "photo": null, "hometown": " BALTIMORE", "latitude": 39.23316, "longitude": -76.63663, "county": "BALTIMORE CITY"},
{"fname": "MILLARD ERNEST JR", "lname": "PRICE", "hasphoto": true, "photo": null, "hometown": " FRUITLAND", "latitude": 38.32206, "longitude": -75.6202, "county": "WICOMICO"},
{"fname": "ROBERT JR", "lname": "BATES", "hasphoto": true, "photo": null, "hometown": " BALTIMORE", "latitude": 39.23316, "longitude": -76.63663, "county": "BALTIMORE CITY"},
{"fname": "RUSSELL LEE", "lname": "PRICE", "hasphoto": true, "photo": null, "hometown": " BALTIMORE", "latitude": 39.23316, "longitude": -76.63663, "county": "BALTIMORE CITY"},
{"fname": "WILLIAM EUGENE", "lname": "PRICE", "hasphoto": true, "photo": null, "hometown": " EAST PINES", "latitude": 38.95983, "longitude": -76.90942, "county": "PRINCE GEORGES"},
{"fname": "THOMAS EUGENE", "lname": "PRITT", "hasphoto": true, "photo": null, "hometown": " ABERDEEN", "latitude": 39.50956, "longitude": -76.16412, "county": "HARFORD"},
{"fname": "FRANK MAURICE", "lname": "PROCTOR", "hasphoto": true, "photo": null, "hometown": " OXON HILL", "latitude": 38.80345, "longitude": -76.9897, "county": "PRINCE GEORGES"},
{"fname": "WILLIAM EARL", "lname": "PROPST", "hasphoto": true, "photo": null, "hometown": " CUMBERLAND", "latitude": 39.89924, "longitude": -79.96839, "county": "ALLEGANY"},
{"fname": "FRANCIS JOHN J", "lname": "PRUITT", "hasphoto": true, "photo": null, "hometown": " BALTIMORE", "latitude": 39.23316, "longitude": -76.63663, "county": "BALTIMORE CITY"},
{"fname": "THOMAS WILLIAM", "lname": "PRYOR", "hasphoto": true, "photo": null, "hometown": " FORT HOLABIRD", "latitude": -77, "longitude": 39, "county": "BALTIMORE"},
{"fname": "CHARLES AUBREY", "lname": "PULLIAM", "hasphoto": true, "photo": null, "hometown": " MIDDLE RIVER", "latitude": 39.33427, "longitude": -76.43941, "county": "BALTIMORE"},
{"fname": "ERIC VINCENT", "lname": "PULLIAM", "hasphoto": true, "photo": null, "hometown": " BALTIMORE", "latitude": 39.23316, "longitude": -76.63663, "county": "BALTIMORE CITY"},
{"fname": "ARTHUR J", "lname": "BOWYER", "hasphoto": true, "photo": null, "hometown": " MARION", "latitude": 38.03929, "longitude": -75.77076, "county": "SOMERSET"},
{"fname": "JOSEPH FREDERICK JR", "lname": "BAUER", "hasphoto": true, "photo": null, "hometown": " BALTIMORE", "latitude": 39.23316, "longitude": -76.63663, "county": "BALTIMORE CITY"},
{"fname": "MCDONALD E", "lname": "BOYCE", "hasphoto": true, "photo": null, "hometown": " BALTIMORE", "latitude": 39.23316, "longitude": -76.63663, "county": "BALTIMORE CITY"},
{"fname": "RICHARD KLEMM JR", "lname": "BOYD", "hasphoto": true, "photo": null, "hometown": "CARLISLE PA", "latitude": -77, "longitude": 39, "county": "OTHER"},
{"fname": "CHARLES BENHAM JR", "lname": "BOYNTON", "hasphoto": true, "photo": null, "hometown": " BALTIMORE", "latitude": 39.23316, "longitude": -76.63663, "county": "BALTIMORE CITY"},
{"fname": "CHARLES FRANK", "lname": "BRANDENBURG", "hasphoto": true, "photo": null, "hometown": " FREDERICK", "latitude": 39.294, "longitude": -76.59636, "county": "FREDERICK"},
{"fname": "DALE", "lname": "BRANDENBURG", "hasphoto": true, "photo": null, "hometown": " CAPITOL HEIGHTS", "latitude": -77, "longitude": 39, "county": "PRINCE GEORGES"},
{"fname": "WILLIAM MICHAEL", "lname": "BRANOCK", "hasphoto": true, "photo": null, "hometown": " BLADENSBURG", "latitude": 38.93928, "longitude": -76.93386, "county": "PRINCE GEORGES"},
{"fname": "LARRY FRANKLIN", "lname": "BRASHEARS", "hasphoto": true, "photo": null, "hometown": " WALKERSVILLE", "latitude": 39.48621, "longitude": -77.35193, "county": "FREDERICK"},
{"fname": "JOHN KENNETH", "lname": "BRAZIER", "hasphoto": true, "photo": null, "hometown": " BALTIMORE", "latitude": 39.23316, "longitude": -76.63663, "county": "BALTIMORE CITY"},
{"fname": "EDMUND DAVID JR", "lname": "BRENT", "hasphoto": true, "photo": null, "hometown": " BALTIMORE", "latitude": 39.23316, "longitude": -76.63663, "county": "BALTIMORE CITY"},
{"fname": "MICHAEL LEON", "lname": "BREWER", "hasphoto": true, "photo": null, "hometown": " FREDERICK", "latitude": 39.294, "longitude": -76.59636, "county": "FREDERICK"},
{"fname": "ARTHUR JEROME", "lname": "BAYLOR", "hasphoto": true, "photo": null, "hometown": " BALTIMORE", "latitude": 39.23316, "longitude": -76.63663, "county": "BALTIMORE CITY"},
{"fname": "CHARLES LILLETON", "lname": "BRIDDELL", "hasphoto": true, "photo": null, "hometown": " BALTIMORE", "latitude": 39.23316, "longitude": -76.63663, "county": "BALTIMORE CITY"},
{"fname": "PAUL EDWARD", "lname": "BRIDGETT", "hasphoto": true, "photo": null, "hometown": " RIVERDALE", "latitude": 39.09928, "longitude": -76.5358, "county": "PRINCE GEORGES"},
{"fname": "JOHN ARNOLD", "lname": "BRISCOE", "hasphoto": true, "photo": null, "hometown": " BALTIMORE", "latitude": 39.23316, "longitude": -76.63663, "county": "BALTIMORE CITY"},
{"fname": "CHARLES JACKSON", "lname": "BRITT", "hasphoto": true, "photo": null, "hometown": " FERNDALE", "latitude": 39.18316, "longitude": -76.64024, "county": "ANNE ARUNDEL"},
{"fname": "DANIEL SPENSER", "lname": "BRITTAIN", "hasphoto": true, "photo": null, "hometown": " FREDERICK", "latitude": 39.294, "longitude": -76.59636, "county": "FREDERICK"},
{"fname": "RONALD JOSEPH", "lname": "BRITZ", "hasphoto": true, "photo": null, "hometown": " SEVERNA PARK", "latitude": 39.07039, "longitude": -76.54524, "county": "ANNE ARUNDEL"},
{"fname": "EARL THOMAS", "lname": "BROOKE", "hasphoto": true, "photo": null, "hometown": " CAPITOL HEIGHTS", "latitude": -77, "longitude": 39, "county": "PRINCE GEORGES"},
{"fname": "GERALD BERNARD", "lname": "BROWN", "hasphoto": true, "photo": null, "hometown": " BALTIMORE", "latitude": 39.23316, "longitude": -76.63663, "county": "BALTIMORE CITY"},
{"fname": "JAMES TRULY", "lname": "BROWN", "hasphoto": true, "photo": null, "hometown": " BALTIMORE", "latitude": 39.23316, "longitude": -76.63663, "county": "BALTIMORE CITY"},
{"fname": "JOSEPH CLINTON", "lname": "BROWN", "hasphoto": true, "photo": null, "hometown": " PASADENA", "latitude": 39.10733, "longitude": -76.57108, "county": "ANNE ARUNDEL"},
{"fname": "EARL SHERMAN", "lname": "BAZEMORE", "hasphoto": true, "photo": null, "hometown": " BALTIMORE", "latitude": 39.23316, "longitude": -76.63663, "county": "BALTIMORE CITY"},
{"fname": "MARCUS JR", "lname": "BROWN", "hasphoto": true, "photo": null, "hometown": " BALTIMORE", "latitude": 39.23316, "longitude": -76.63663, "county": "BALTIMORE CITY"},
{"fname": "MICHAEL FRANCIS", "lname": "BROWN", "hasphoto": true, "photo": null, "hometown": " BALTIMORE", "latitude": 39.23316, "longitude": -76.63663, "county": "BALTIMORE CITY"},
{"fname": "ROBERT WILSON JR", "lname": "BROWN", "hasphoto": true, "photo": null, "hometown": " CENTREVILLE", "latitude": 39.05483, "longitude": -76.07356, "county": "QUEEN ANNE"},
{"fname": "THOMAS FRANCIS JR", "lname": "BROWN", "hasphoto": true, "photo": null, "hometown": " MORNINGSIDE", "latitude": 39.4126, "longitude": -77.5886, "county": "PRINCE GEORGES"},
{"fname": "WILLIAM JOSEPH", "lname": "BROWN", "hasphoto": true, "photo": null, "hometown": " BALTIMORE", "latitude": 39.23316, "longitude": -76.63663, "county": "BALTIMORE CITY"},
{"fname": "HENRY MC DONALD", "lname": "BRUCE", "hasphoto": true, "photo": null, "hometown": " BALTIMORE", "latitude": 39.23316, "longitude": -76.63663, "county": "BALTIMORE CITY"},
{"fname": "LEE RAYMOND JR", "lname": "BRUCE", "hasphoto": true, "photo": null, "hometown": " PASADENA", "latitude": 39.10733, "longitude": -76.57108, "county": "ANNE ARUNDEL"},
{"fname": "RICHARD BERT", "lname": "BRUCE", "hasphoto": true, "photo": null, "hometown": " SILVER SPRING", "latitude": 38.99067, "longitude": -77.02609, "county": "MONTGOMERY"},
{"fname": "LANCE DUNHAM", "lname": "BRUNSON", "hasphoto": true, "photo": null, "hometown": " GARRETT PARK", "latitude": 39.03816, "longitude": -77.09303, "county": "MONTGOMERY"},
{"fname": "ROSCOE EDWARD", "lname": "BRYANT", "hasphoto": true, "photo": null, "hometown": " BALTIMORE", "latitude": 39.23316, "longitude": -76.63663, "county": "BALTIMORE CITY"},
{"fname": "JACK ALLEN", "lname": "BEARD", "hasphoto": true, "photo": null, "hometown": " BOONSBORO", "latitude": 38.95011, "longitude": -75.85994, "county": "WASHINGTON"},
{"fname": "STEPHEN HAMILTON", "lname": "ADAMS", "hasphoto": true, "photo": null, "hometown": " CLARKSVILLE", "latitude": 39.2065, "longitude": -76.94303, "county": "HOWARD"},
{"fname": "ROBERT BUTLER", "lname": "BUCHANAN", "hasphoto": true, "photo": null, "hometown": " BALTIMORE", "latitude": 39.23316, "longitude": -76.63663, "county": "BALTIMORE CITY"},
{"fname": "JAMES DONALD II", "lname": "BUDAHAZY", "hasphoto": true, "photo": null, "hometown": " BALTIMORE", "latitude": 39.23316, "longitude": -76.63663, "county": "BALTIMORE CITY"},
{"fname": "DAVID JOHN", "lname": "BUDKA", "hasphoto": true, "photo": null, "hometown": " BALTIMORE", "latitude": 39.23316, "longitude": -76.63663, "county": "BALTIMORE CITY"},
{"fname": "NATHANIEL JR", "lname": "BUGGS", "hasphoto": true, "photo": null, "hometown": " BALTIMORE", "latitude": 39.23316, "longitude": -76.63663, "county": "BALTIMORE CITY"},
{"fname": "WILLIAM", "lname": "BUGOSH", "hasphoto": true, "photo": null, "hometown": " BALTIMORE", "latitude": 39.23316, "longitude": -76.63663, "county": "BALTIMORE CITY"},
{"fname": "LAWRENCE RANDOLPH", "lname": "BULLEN", "hasphoto": true, "photo": null, "hometown": " OXFORD", "latitude": 38.68651, "longitude": -76.17161, "county": "TALBOT"},
{"fname": "CLIFFORD GARLAND", "lname": "BURCH", "hasphoto": true, "photo": null, "hometown": " LANGLEY PARK", "latitude": 38.98872, "longitude": -76.98136, "county": "PRINCE GEORGES"},
{"fname": "LANNY JOE", "lname": "BURDETTE", "hasphoto": true, "photo": null, "hometown": " BALTIMORE", "latitude": 39.23316, "longitude": -76.63663, "county": "BALTIMORE CITY"},
{"fname": "CLARENCE JOHN", "lname": "BURLEY", "hasphoto": true, "photo": null, "hometown": " BALTIMORE", "latitude": 39.23316, "longitude": -76.63663, "county": "BALTIMORE CITY"},
{"fname": "ROBERT GRIFFIN", "lname": "DAVIDSON", "hasphoto": true, "photo": null, "hometown": " GLEN BURNIE", "latitude": 39.16261, "longitude": -76.62469, "county": "ANNE ARUNDEL"},
{"fname": "JOHN HENRY JR", "lname": "BEAUCHAMP", "hasphoto": true, "photo": null, "hometown": " PRINCESS ANNE", "latitude": 36.75154, "longitude": -76.05299, "county": "SOMERSET"},
{"fname": "DENNIS DEAN", "lname": "DAVIS", "hasphoto": true, "photo": null, "hometown": " CAPITOL HEIGHTS", "latitude": -77, "longitude": 39, "county": "PRINCE GEORGES"},
{"fname": "ELMER NEAL", "lname": "DAVIS", "hasphoto": true, "photo": null, "hometown": " SALISBURY", "latitude": 39.75286, "longitude": -79.08086, "county": "WICOMICO"},
{"fname": "JAMES NORRIS", "lname": "DAVIS", "hasphoto": true, "photo": null, "hometown": " RIVERDALE", "latitude": 39.09928, "longitude": -76.5358, "county": "PRINCE GEORGES"},
{"fname": "JOHN ENGLISH", "lname": "DAVIS", "hasphoto": true, "photo": null, "hometown": " BALTIMORE", "latitude": 39.23316, "longitude": -76.63663, "county": "BALTIMORE CITY"},
{"fname": "LAWRENCE ARNOLD", "lname": "DAVIS", "hasphoto": true, "photo": null, "hometown": " LOTHIAN", "latitude": 38.83178, "longitude": -76.61135, "county": "ANNE ARUNDEL"},
{"fname": "MELVIN GILMORE", "lname": "DAVIS", "hasphoto": true, "photo": null, "hometown": " BALTIMORE", "latitude": 39.23316, "longitude": -76.63663, "county": "BALTIMORE CITY"},
{"fname": "ROBERT JULIAN JR", "lname": "DAVIS", "hasphoto": true, "photo": null, "hometown": " GALENA", "latitude": 39.34067, "longitude": -75.87883, "county": "KENT"},
{"fname": "JOHN ZANG", "lname": "FICKUS", "hasphoto": true, "photo": null, "hometown": " BALTIMORE", "latitude": 39.23316, "longitude": -76.63663, "county": "BALTIMORE CITY"},
{"fname": "CLINTON ANGELO", "lname": "FIELDS", "hasphoto": true, "photo": null, "hometown": " BALTIMORE", "latitude": 39.23316, "longitude": -76.63663, "county": "BALTIMORE CITY"},
{"fname": "ROSS FRANCIS", "lname": "FIKE", "hasphoto": true, "photo": null, "hometown": " FRIENDSVILLE", "latitude": 39.66369, "longitude": -79.40532, "county": "GARRETT"},
{"fname": "MARTIN ROBERT", "lname": "BECK", "hasphoto": true, "photo": null, "hometown": "GAINSVILLE FL", "latitude": -77, "longitude": 39, "county": "OTHER"},
{"fname": "THOMAS EUGENE", "lname": "FIKE", "hasphoto": true, "photo": null, "hometown": " FRIENDSVILLE", "latitude": 39.66369, "longitude": -79.40532, "county": "GARRETT"},
{"fname": "DONALD JAY", "lname": "FISHER", "hasphoto": true, "photo": null, "hometown": " BALTIMORE", "latitude": 39.23316, "longitude": -76.63663, "county": "BALTIMORE CITY"},
{"fname": "HARRY SAMUEL JR", "lname": "FITEZ", "hasphoto": true, "photo": null, "hometown": " ELLICOTT CITY", "latitude": -77, "longitude": 39, "county": "HOWARD"},
{"fname": "GARY BERNARD", "lname": "FLABBI", "hasphoto": true, "photo": null, "hometown": " BALTIMORE", "latitude": 39.23316, "longitude": -76.63663, "county": "BALTIMORE CITY"},
{"fname": "SHERMAN EDWARD JR", "lname": "FLANAGAN", "hasphoto": true, "photo": null, "hometown": " WESTMINSTER", "latitude": 42.08089, "longitude": -80.14089, "county": "CARROLL"},
{"fname": "ROGER DALE", "lname": "HAMILTON", "hasphoto": true, "photo": null, "hometown": " BALTIMORE", "latitude": 39.23316, "longitude": -76.63663, "county": "BALTIMORE CITY"},
{"fname": "HARRY DAVID", "lname": "HAMM", "hasphoto": true, "photo": null, "hometown": " HYATTSVILLE", "latitude": 38.95594, "longitude": -76.94553, "county": "PRINCE GEORGES"},
{"fname": "JAMES RUSSELL", "lname": "HAMMERSLA", "hasphoto": true, "photo": null, "hometown": " REISTERSTOWN", "latitude": 39.46955, "longitude": -76.82942, "county": "BALTIMORE"},
{"fname": "LAWRENCE THEODORE", "lname": "HAMMOND", "hasphoto": true, "photo": null, "hometown": " BALTIMORE", "latitude": 39.23316, "longitude": -76.63663, "county": "BALTIMORE CITY"},
{"fname": "JAMES MADISON JR", "lname": "HAMRICK", "hasphoto": true, "photo": null, "hometown": " LEXINGTON PARK", "latitude": 38.26679, "longitude": -76.45384, "county": "SAINT MARYS"},
{"fname": "CHARLES ARTHUR", "lname": "BEDSOLE", "hasphoto": true, "photo": null, "hometown": " SEVERNA PARK", "latitude": 39.07039, "longitude": -76.54524, "county": "ANNE ARUNDEL"},
{"fname": "GARY W", "lname": "HANNA", "hasphoto": true, "photo": null, "hometown": " ELLICOTT CITY", "latitude": -77, "longitude": 39, "county": "HOWARD"},
{"fname": "CHARLES WALTER", "lname": "HARBERT", "hasphoto": true, "photo": null, "hometown": " BRUNSWICK", "latitude": 39.31427, "longitude": -77.62777, "county": "FREDERICK"},
{"fname": "MICHAEL OWEN", "lname": "HARDESTY", "hasphoto": true, "photo": null, "hometown": " GALESVILLE", "latitude": 38.84317, "longitude": -76.54357, "county": "ANNE ARUNDEL"},
{"fname": "CHARLES CLIFFORD", "lname": "HARDING", "hasphoto": true, "photo": null, "hometown": " BALTIMORE", "latitude": 39.23316, "longitude": -76.63663, "county": "BALTIMORE CITY"},
{"fname": "JOHN THOMAS", "lname": "HARE", "hasphoto": true, "photo": null, "hometown": " CUMBERLAND", "latitude": 39.89924, "longitude": -79.96839, "county": "ALLEGANY"},
{"fname": "CURTIS JOSEPH", "lname": "HARMAN", "hasphoto": true, "photo": null, "hometown": " BALTIMORE", "latitude": 39.23316, "longitude": -76.63663, "county": "BALTIMORE CITY"},
{"fname": "ALPHONSO LEE", "lname": "HARMON", "hasphoto": true, "photo": null, "hometown": " BERLIN", "latitude": 38.32262, "longitude": -75.21769, "county": "WORCESTER"},
{"fname": "MICHAEL LEE", "lname": "HARP", "hasphoto": true, "photo": null, "hometown": " PASADENA", "latitude": 39.10733, "longitude": -76.57108, "county": "ANNE ARUNDEL"},
{"fname": "JAMES LOUIS", "lname": "HARRIS", "hasphoto": true, "photo": null, "hometown": " BALTIMORE", "latitude": 39.23316, "longitude": -76.63663, "county": "BALTIMORE CITY"},
{"fname": "JEFFREY LYNDOL", "lname": "HARRIS", "hasphoto": true, "photo": null, "hometown": " CLINTON", "latitude": 38.72984, "longitude": -76.87747, "county": "PRINCE GEORGES"},
{"fname": "MARTIN JOHN", "lname": "BEGOSH", "hasphoto": true, "photo": null, "hometown": " ROCKVILLE", "latitude": 39.93092, "longitude": -78.67113, "county": "MONTGOMERY"},
{"fname": "JOHN LEE JR", "lname": "HARRIS", "hasphoto": true, "photo": null, "hometown": " BALTIMORE", "latitude": 39.23316, "longitude": -76.63663, "county": "BALTIMORE CITY"},
{"fname": "TERRIN DINSMORE", "lname": "HICKS", "hasphoto": true, "photo": null, "hometown": " SILVER SPRING", "latitude": 38.99067, "longitude": -77.02609, "county": "MONTGOMERY"},
{"fname": "ROBERT M", "lname": "HIGGINBOTHAM", "hasphoto": true, "photo": null, "hometown": " ROCKVILLE", "latitude": 39.93092, "longitude": -78.67113, "county": "MONTGOMERY"},
{"fname": "JIMMY ARNOLD", "lname": "HILL", "hasphoto": true, "photo": null, "hometown": " BLADENSBURG", "latitude": 38.93928, "longitude": -76.93386, "county": "PRINCE GEORGES"},
{"fname": "RICHARD GARFIELD", "lname": "HILL", "hasphoto": true, "photo": null, "hometown": " ESSEX", "latitude": 39.30927, "longitude": -76.47496, "county": "BALTIMORE"},
{"fname": "THOMAS WAYNE", "lname": "HILL", "hasphoto": true, "photo": null, "hometown": " BALTIMORE", "latitude": 39.23316, "longitude": -76.63663, "county": "BALTIMORE CITY"},
{"fname": "ROBERT LAURIE", "lname": "HILTON", "hasphoto": true, "photo": null, "hometown": " BALTIMORE", "latitude": 39.23316, "longitude": -76.63663, "county": "BALTIMORE CITY"},
{"fname": "CLYDE STEVEN", "lname": "HIMES", "hasphoto": true, "photo": null, "hometown": " MYERSVILLE", "latitude": 39.5051, "longitude": -77.56638, "county": "FREDERICK"},
{"fname": "WILLIAM LINCOLN JR", "lname": "HINES", "hasphoto": true, "photo": null, "hometown": " BALTIMORE", "latitude": 39.23316, "longitude": -76.63663, "county": "BALTIMORE CITY"},
{"fname": "RAYMOND R JR", "lname": "HITCHCOCK", "hasphoto": true, "photo": null, "hometown": " HAVRE DE GRACE", "latitude": 39.54928, "longitude": -76.09162, "county": "HARFORD"},
{"fname": "STEPHEN EDWIN", "lname": "BELCHER", "hasphoto": true, "photo": null, "hometown": " AVONDALE", "latitude": 39.55927, "longitude": -77.03082, "county": "CARROLL"},
{"fname": "GEORGE", "lname": "HITZELBERGER", "hasphoto": true, "photo": null, "hometown": " BALTIMORE", "latitude": 39.23316, "longitude": -76.63663, "county": "BALTIMORE CITY"},
{"fname": "DAVID LAWTON", "lname": "HODGES", "hasphoto": true, "photo": null, "hometown": " CHEVY CHASE", "latitude": 38.97122, "longitude": -77.07637, "county": "MONTGOMERY"},
{"fname": "WILLIAM JEFFREY", "lname": "HODGES", "hasphoto": true, "photo": null, "hometown": " SILVER SPRING", "latitude": 38.99067, "longitude": -77.02609, "county": "MONTGOMERY"},
{"fname": "JOHN PALMORE", "lname": "HOLCOMB", "hasphoto": true, "photo": null, "hometown": " BALTIMORE", "latitude": 39.23316, "longitude": -76.63663, "county": "BALTIMORE CITY"},
{"fname": "DAVID KEITH", "lname": "HOLDWAY", "hasphoto": true, "photo": null, "hometown": " HYATTSVILLE", "latitude": 38.95594, "longitude": -76.94553, "county": "PRINCE GEORGES"},
{"fname": "ROBERT STANLEY III", "lname": "HOLLEY", "hasphoto": true, "photo": null, "hometown": " BALTIMORE", "latitude": 39.23316, "longitude": -76.63663, "county": "BALTIMORE CITY"},
{"fname": "SAMUEL L", "lname": "HOLMAN", "hasphoto": true, "photo": null, "hometown": " BALTIMORE", "latitude": 39.23316, "longitude": -76.63663, "county": "BALTIMORE CITY"},
{"fname": "RONALD EUGENE", "lname": "HOLMES", "hasphoto": true, "photo": null, "hometown": " BALTIMORE", "latitude": 39.23316, "longitude": -76.63663, "county": "BALTIMORE CITY"},
{"fname": "LOUIS ALEXANDER JR", "lname": "HOLTON", "hasphoto": true, "photo": null, "hometown": " BALTIMORE", "latitude": 39.23316, "longitude": -76.63663, "county": "BALTIMORE CITY"},
{"fname": "CHARLES WAYNE", "lname": "HOOK", "hasphoto": true, "photo": null, "hometown": " FRIENDSVILLE", "latitude": 39.66369, "longitude": -79.40532, "county": "GARRETT"},
{"fname": "CHRISTOPHER JAMES", "lname": "BELL", "hasphoto": true, "photo": null, "hometown": " BALTIMORE", "latitude": 39.23316, "longitude": -76.63663, "county": "BALTIMORE CITY"},
{"fname": "MICHAEL J", "lname": "HOOVER", "hasphoto": true, "photo": null, "hometown": " HYATTSVILLE", "latitude": 38.95594, "longitude": -76.94553, "county": "PRINCE GEORGES"},
{"fname": "AARON MILTON", "lname": "HOPKINS", "hasphoto": true, "photo": null, "hometown": " MARDELA SPRINGS", "latitude": 38.45984, "longitude": -75.7591, "county": "WICOMICO"},
{"fname": "DANNY LEE", "lname": "HOPKINS", "hasphoto": true, "photo": null, "hometown": " ANNAPOLIS", "latitude": 38.93956, "longitude": -76.46051, "county": "ANNE ARUNDEL"},
{"fname": "WILLIAM KENIS", "lname": "HOPKINS", "hasphoto": true, "photo": null, "hometown": " WHEATON", "latitude": 39.03983, "longitude": -77.05526, "county": "MONTGOMERY"},
{"fname": "ROBERT BERNARD", "lname": "HORTON", "hasphoto": true, "photo": null, "hometown": " TIMONIUM", "latitude": 39.43705, "longitude": -76.61969, "county": "BALTIMORE"},
{"fname": "MICHAEL NEAL", "lname": "JOHNSON", "hasphoto": true, "photo": null, "hometown": " BRENTWOOD", "latitude": 39.37927, "longitude": -77.49276, "county": "PRINCE GEORGES"},
{"fname": "ROBERT LEE", "lname": "JOHNSON", "hasphoto": true, "photo": null, "hometown": " BALTIMORE", "latitude": 39.23316, "longitude": -76.63663, "county": "BALTIMORE CITY"},