[{"recid": 1, "fname": "ROBERT WILLIAM", "lname": "ERNATHY", "hasphoto": true, "photo": null, "hometown": " ROCKVILLE", "latitude": -77, "longitude": 39, "county": "MONTGOMERY", "countyid": 31, "badloc": false},
 {"recid": 2, "fname": "WILLIAM WALLACE", "lname": "ABSHEAR", "hasphoto": true, "photo": null, "hometown": " HILLCREST HEIGHTS", "latitude": 39.15205, "longitude": -76.89192, "county": "PRINCE GEORGES", "countyid": 33, "badloc": false},
 {"recid": 3, "fname": "RONALD M", "lname": "ADAMS", "hasphoto": true, "photo": null, "hometown": " CASCADE", "latitude": 39.71093, "longitude": -77.48943, "county": "WASHINGTON", "countyid": 43, "badloc": false},
 {"recid": 4, "fname": "STEPHEN HAMILTON", "lname": "ADAMS", "hasphoto": true, "photo": null, "hometown": " CLARKSVILLE", "latitude": 39.2065, "longitude": -76.94303, "county": "HOWARD", "countyid": 27, "badloc": false},
 {"recid": 5, "fname": "HARVEY CHADWICK", "lname": "AIAU", "hasphoto": true, "photo": null, "hometown": " BALTIMORE", "latitude": 39.23316, "longitude": -76.63663, "county": "BALTIMORE CITY", "countyid": 510, "badloc": false},
 {"recid": 6, "fname": "DAVID ROSS", "lname": "AIKEN", "hasphoto": true, "photo": null, "hometown": " BALTIMORE", "latitude": 39.23316, "longitude": -76.63663, "county": "BALTIMORE CITY", "countyid": 510, "badloc": false},
 {"recid": 7, "fname": "LOUIS VICTOR JR", "lname": "ALBI", "hasphoto": true, "photo": null, "hometown": " BALTIMORE", "latitude": 39.23316, "longitude": -76.63663, "county": "BALTIMORE CITY", "countyid": 510, "badloc": false},
 {"recid": 8, "fname": "JAMES SHERWOOD", "lname": "ALLPORT", "hasphoto": true, "photo": null, "hometown": " MARLOWE HEIGHTS", "latitude": -77, "longitude": 39, "county": "PRINCE GEORGES", "countyid": 33, "badloc": false},
 {"recid": 9, "fname": "RUSSELL MONROE", "lname": "AMOSS", "hasphoto": true, "photo": null, "hometown": " MOUNT AIRY", "latitude": 39.37621, "longitude": -77.1547, "county": "FREDERICK", "countyid": 21, "badloc": false},
 {"recid": 10, "fname": "VINCENT JOHN", "lname": "ANASTASIO", "hasphoto": true, "photo": null, "hometown": " BALTIMORE", "latitude": 39.23316, "longitude": -76.63663, "county": "BALTIMORE CITY", "countyid": 510, "badloc": false},
 {"recid": 11, "fname": "LARRY WAYNE", "lname": "ANDERSON", "hasphoto": true, "photo": null, "hometown": " BALTIMORE", "latitude": 39.23316, "longitude": -76.63663, "county": "BALTIMORE CITY", "countyid": 510, "badloc": false},
 {"recid": 12, "fname": "WILLIAM ALBERT", "lname": "ANDREWS", "hasphoto": true, "photo": null, "hometown": " BENEDICT", "latitude": 38.50929, "longitude": -76.67968, "county": "CHARLES", "countyid": 17, "badloc": false},
 {"recid": 13, "fname": "JOHN ARTHUR JR", "lname": "ANSELL", "hasphoto": true, "photo": null, "hometown": " BLADENSBURG", "latitude": 38.93928, "longitude": -76.93386, "county": "PRINCE GEORGES", "countyid": 33, "badloc": false},
 {"recid": 14, "fname": "PAUL ROBERT", "lname": "ANZELONE", "hasphoto": true, "photo": null, "hometown": " COLLEGE PARK", "latitude": 39.00872, "longitude": -76.95109, "county": "PRINCE GEORGES", "countyid": 33, "badloc": false},
 {"recid": 15, "fname": "CHARLES F", "lname": "ARMENTROUT", "hasphoto": true, "photo": null, "hometown": " BALTIMORE", "latitude": 39.23316, "longitude": -76.63663, "county": "BALTIMORE CITY", "countyid": 510, "badloc": false},
 {"recid": 16, "fname": "GREGORY VAN", "lname": "ARMSTEAD", "hasphoto": true, "photo": null, "hometown": " BALTIMORE", "latitude": 39.23316, "longitude": -76.63663, "county": "BALTIMORE CITY", "countyid": 510, "badloc": false},
 {"recid": 17, "fname": "CHARLES JOSEPH", "lname": "ARMSTRONG", "hasphoto": true, "photo": null, "hometown": " LUTHERVILLE", "latitude": 39.42122, "longitude": -76.62608, "county": "BALTIMORE", "countyid": 510, "badloc": false},
 {"recid": 18, "fname": "CHARLES E JR", "lname": "ARONHALT", "hasphoto": true, "photo": null, "hometown": " CUMBERLAND", "latitude": -77, "longitude": 39, "county": "ALLEGANY", "countyid": 1, "badloc": false},
 {"recid": 19, "fname": "JAMES OSCAR", "lname": "ARROWOOD", "hasphoto": true, "photo": null, "hometown": " CUMBERLAND", "latitude": -77, "longitude": 39, "county": "ALLEGANY", "countyid": 1, "badloc": false},
 {"recid": 20, "fname": "JAMES MITCHELL", "lname": "ATCHISON", "hasphoto": true, "photo": null, "hometown": " FREDERICK", "latitude": 39.294, "longitude": -76.59636, "county": "FREDERICK", "countyid": 21, "badloc": false},
 {"recid": 21, "fname": "FRANCIS MATTHEW", "lname": "AUD", "hasphoto": true, "photo": null, "hometown": " GREAT MILLS", "latitude": 38.23679, "longitude": -76.49718, "county": "SAINT MARYS", "countyid": 37, "badloc": false},
 {"recid": 22, "fname": "DAVID RYAN", "lname": "AUGUSTUS", "hasphoto": true, "photo": null, "hometown": " BALTIMORE", "latitude": 39.23316, "longitude": -76.63663, "county": "BALTIMORE CITY", "countyid": 510, "badloc": false},
 {"recid": 23, "fname": "JOHN WILLIAM", "lname": "AVELLEYRA", "hasphoto": true, "photo": null, "hometown": " MOUNT RAINIER", "latitude": 38.9415, "longitude": -76.96498, "county": "PRINCE GEORGES", "countyid": 33, "badloc": false},
 {"recid": 24, "fname": "JACQUE JOSEPH", "lname": "AYD", "hasphoto": true, "photo": null, "hometown": " BALTIMORE", "latitude": 39.23316, "longitude": -76.63663, "county": "BALTIMORE CITY", "countyid": 510, "badloc": false},
 {"recid": 25, "fname": "EDWARD FRANKLIN", "lname": "AYERS", "hasphoto": true, "photo": null, "hometown": " EASTON", "latitude": -77, "longitude": 39, "county": "TALBOT", "countyid": 41, "badloc": false},
 {"recid": 26, "fname": "LELAND ALSTON", "lname": "BAILEY", "hasphoto": true, "photo": null, "hometown": " BALTIMORE", "latitude": 39.23316, "longitude": -76.63663, "county": "BALTIMORE CITY", "countyid": 510, "badloc": false},
 {"recid": 27, "fname": "TOLLIE", "lname": "BAILEY", "hasphoto": true, "photo": null, "hometown": " BALTIMORE", "latitude": 39.23316, "longitude": -76.63663, "county": "BALTIMORE CITY", "countyid": 510, "badloc": false},
 {"recid": 28, "fname": "FREDERICK NORMAN", "lname": "BAKER", "hasphoto": true, "photo": null, "hometown": " CUMBERLAND", "latitude": -77, "longitude": 39, "county": "ALLEGANY", "countyid": 1, "badloc": false},
 {"recid": 29, "fname": "JAMES HOWARD JR", "lname": "BAKER", "hasphoto": true, "photo": null, "hometown": " BALTIMORE", "latitude": 39.23316, "longitude": -76.63663, "county": "BALTIMORE CITY", "countyid": 510, "badloc": false},
 {"recid": 30, "fname": "RONALD", "lname": "BAKER", "hasphoto": true, "photo": null, "hometown": " INDIAN HEAD", "latitude": 38.60012, "longitude": -77.1622, "county": "CHARLES", "countyid": 17, "badloc": false},
 {"recid": 31, "fname": "VERNON R", "lname": "BAKER", "hasphoto": true, "photo": null, "hometown": " BALTIMORE", "latitude": 39.23316, "longitude": -76.63663, "county": "BALTIMORE CITY", "countyid": 510, "badloc": false},
 {"recid": 32, "fname": "ROBERT LLOYD", "lname": "BALDWIN", "hasphoto": true, "photo": null, "hometown": " EDGEWATER", "latitude": 38.95706, "longitude": -76.54996, "county": "ANNE ARUNDEL", "countyid": 3, "badloc": false},
 {"recid": 33, "fname": "HENRY M", "lname": "BARCE", "hasphoto": true, "photo": null, "hometown": "?", "latitude": -77, "longitude": 39, "county": "OTHER", "countyid": 999, "badloc": false},
 {"recid": 34, "fname": "FREDERICK ALLEN", "lname": "BARCLAY", "hasphoto": true, "photo": null, "hometown": " SILVER SPRING", "latitude": 38.99067, "longitude": -77.02609, "county": "MONTGOMERY", "countyid": 31, "badloc": false},
 {"recid": 35, "fname": "KENNETH PAUL JR", "lname": "BARKLEY", "hasphoto": true, "photo": null, "hometown": " CUMBERLAND", "latitude": -77, "longitude": 39, "county": "ALLEGANY", "countyid": 1, "badloc": false},
 {"recid": 36, "fname": "HAROLD EDWARD", "lname": "BARNARD", "hasphoto": true, "photo": null, "hometown": " SILVER SPRING", "latitude": 38.99067, "longitude": -77.02609, "county": "MONTGOMERY", "countyid": 31, "badloc": false},
 {"recid": 37, "fname": "BARRIE VANE", "lname": "BARNES", "hasphoto": true, "photo": null, "hometown": " SALISBURY", "latitude": 38.40481, "longitude": -75.56508, "county": "WICOMICO", "countyid": 45, "badloc": false},
 {"recid": 38, "fname": "JOHN HOWARD", "lname": "BARNES", "hasphoto": true, "photo": null, "hometown": " BALTIMORE", "latitude": 39.23316, "longitude": -76.63663, "county": "BALTIMORE CITY", "countyid": 510, "badloc": false},
 {"recid": 39, "fname": "OTTO PHILIP", "lname": "BARNHART", "hasphoto": true, "photo": null, "hometown": " HANCOCK", "latitude": 39.69898, "longitude": -78.17973, "county": "WASHINGTON", "countyid": 43, "badloc": false},
 {"recid": 40, "fname": "LARRY M", "lname": "BARNHILL", "hasphoto": true, "photo": null, "hometown": " BALTIMORE", "latitude": 39.23316, "longitude": -76.63663, "county": "BALTIMORE CITY", "countyid": 510, "badloc": false},
 {"recid": 41, "fname": "ALBERT LEWIS JR", "lname": "BARTHELME", "hasphoto": true, "photo": null, "hometown": " TOWSON", "latitude": 39.39761, "longitude": -76.57886, "county": "BALTIMORE", "countyid": 510, "badloc": false},
 {"recid": 42, "fname": "KENNETH LEONARD", "lname": "BARTLEY", "hasphoto": true, "photo": null, "hometown": " MITCHELLVILLE", "latitude": 38.92511, "longitude": -76.74275, "county": "PRINCE GEORGES", "countyid": 33, "badloc": false},
 {"recid": 43, "fname": "JAMES LEON", "lname": "BATES", "hasphoto": true, "photo": null, "hometown": " BOWIE", "latitude": 38.94278, "longitude": -76.73028, "county": "PRINCE GEORGES", "countyid": 33, "badloc": false},
 {"recid": 44, "fname": "MELVIN CARROLL JR", "lname": "BATES", "hasphoto": true, "photo": null, "hometown": " BALTIMORE", "latitude": 39.23316, "longitude": -76.63663, "county": "BALTIMORE CITY", "countyid": 510, "badloc": false},
 {"recid": 45, "fname": "ROBERT JR", "lname": "BATES", "hasphoto": true, "photo": null, "hometown": " BALTIMORE", "latitude": 39.23316, "longitude": -76.63663, "county": "BALTIMORE CITY", "countyid": 510, "badloc": false},
 {"recid": 46, "fname": "JOSEPH FREDERICK JR", "lname": "BAUER", "hasphoto": true, "photo": null, "hometown": " BALTIMORE", "latitude": 39.23316, "longitude": -76.63663, "county": "BALTIMORE CITY", "countyid": 510, "badloc": false},
 {"recid": 47, "fname": "ARTHUR JEROME", "lname": "BAYLOR", "hasphoto": true, "photo": null, "hometown": " BALTIMORE", "latitude": 39.23316, "longitude": -76.63663, "county": "BALTIMORE CITY", "countyid": 510, "badloc": false},
 {"recid": 48, "fname": "EARL SHERMAN", "lname": "BAZEMORE", "hasphoto": true, "photo": null, "hometown": " BALTIMORE", "latitude": 39.23316, "longitude": -76.63663, "county": "BALTIMORE CITY", "countyid": 510, "badloc": false},
 {"recid": 49, "fname": "JACK ALLEN", "lname": "BEARD", "hasphoto": true, "photo": null, "hometown": " BOONSBORO", "latitude": 38.95011, "longitude": -75.85994, "county": "WASHINGTON", "countyid": 43, "badloc": true},
 {"recid": 50, "fname": "JOHN HENRY JR", "lname": "BEAUCHAMP", "hasphoto": true, "photo": null, "hometown": " PRINCESS ANNE", "latitude": -77, "longitude": 39, "county": "SOMERSET", "countyid": 39, "badloc": false},
 {"recid": 51, "fname": "MARTIN ROBERT", "lname": "BECK", "hasphoto": true, "photo": null, "hometown": "GAINSVILLE FL", "latitude": -77, "longitude": 39, "county": "OTHER", "countyid": 999, "badloc": false},
 {"recid": 52, "fname": "CHARLES ARTHUR", "lname": "BEDSOLE", "hasphoto": true, "photo": null, "hometown": " SEVERNA PARK", "latitude": 39.07039, "longitude": -76.54524, "county": "ANNE ARUNDEL", "countyid": 3, "badloc": false},
 {"recid": 53, "fname": "MARTIN JOHN", "lname": "BEGOSH", "hasphoto": true, "photo": null, "hometown": " ROCKVILLE", "latitude": -77, "longitude": 39, "county": "MONTGOMERY", "countyid": 31, "badloc": false},
 {"recid": 54, "fname": "STEPHEN EDWIN", "lname": "BELCHER", "hasphoto": true, "photo": null, "hometown": " AVONDALE", "latitude": 39.55927, "longitude": -77.03082, "county": "CARROLL", "countyid": 13, "badloc": false},
 {"recid": 55, "fname": "CHRISTOPHER JAMES", "lname": "BELL", "hasphoto": true, "photo": null, "hometown": " BALTIMORE", "latitude": 39.23316, "longitude": -76.63663, "county": "BALTIMORE CITY", "countyid": 510, "badloc": false},
 {"recid": 56, "fname": "GEORGE ALBERT JR", "lname": "BELL", "hasphoto": true, "photo": null, "hometown": " SEAT PLEASANT", "latitude": 38.89622, "longitude": -76.90664, "county": "PRINCE GEORGES", "countyid": 33, "badloc": false},
 {"recid": 57, "fname": "PHILLIP ERNEST", "lname": "BENJAMIN", "hasphoto": true, "photo": null, "hometown": " BALTIMORE", "latitude": 39.23316, "longitude": -76.63663, "county": "BALTIMORE CITY", "countyid": 510, "badloc": false},
 {"recid": 58, "fname": "RONALD JOHN III", "lname": "BENKE", "hasphoto": true, "photo": null, "hometown": " WHITE HALL", "latitude": 39.58761, "longitude": -75.83827, "county": "HARFORD", "countyid": 25, "badloc": false},
 {"recid": 59, "fname": "JAMES", "lname": "BERENDS", "hasphoto": true, "photo": null, "hometown": " BALTIMORE", "latitude": 39.23316, "longitude": -76.63663, "county": "BALTIMORE CITY", "countyid": 510, "badloc": false},
 {"recid": 60, "fname": "BARRY HOWARD", "lname": "BERGER", "hasphoto": true, "photo": null, "hometown": " HYATTSVILLE", "latitude": 38.95594, "longitude": -76.94553, "county": "PRINCE GEORGES", "countyid": 33, "badloc": false},
 {"recid": 61, "fname": "JACK STEPHEN JR", "lname": "BERGMAN", "hasphoto": true, "photo": null, "hometown": " BALTIMORE", "latitude": 39.23316, "longitude": -76.63663, "county": "BALTIMORE CITY", "countyid": 510, "badloc": false},
 {"recid": 62, "fname": "BILLY HOWARD", "lname": "BEST", "hasphoto": true, "photo": null, "hometown": " BALTIMORE", "latitude": 39.23316, "longitude": -76.63663, "county": "BALTIMORE CITY", "countyid": 510, "badloc": false},
 {"recid": 63, "fname": "WILLIAM HENRY III", "lname": "BETHEA", "hasphoto": true, "photo": null, "hometown": " BALTIMORE", "latitude": 39.23316, "longitude": -76.63663, "county": "BALTIMORE CITY", "countyid": 510, "badloc": false},
 {"recid": 64, "fname": "ALBERT LEON", "lname": "BETTS", "hasphoto": true, "photo": null, "hometown": " BALTIMORE", "latitude": 39.23316, "longitude": -76.63663, "county": "BALTIMORE CITY", "countyid": 510, "badloc": false},
 {"recid": 65, "fname": "JAMES LEROY", "lname": "BEYERLING", "hasphoto": true, "photo": null, "hometown": " BALTIMORE", "latitude": 39.23316, "longitude": -76.63663, "county": "BALTIMORE CITY", "countyid": 510, "badloc": false},
 {"recid": 66, "fname": "JOHN ANTHONY JR", "lname": "BIFARETI", "hasphoto": true, "photo": null, "hometown": " ROCKVILLE", "latitude": -77, "longitude": 39, "county": "MONTGOMERY", "countyid": 31, "badloc": false},
 {"recid": 67, "fname": "HAROLD DOUGLAS", "lname": "BILLER", "hasphoto": true, "photo": null, "hometown": " SILVER SPRING", "latitude": 38.99067, "longitude": -77.02609, "county": "MONTGOMERY", "countyid": 31, "badloc": false},
 {"recid": 68, "fname": "GEORGE", "lname": "BINKO", "hasphoto": true, "photo": null, "hometown": " BALTIMORE", "latitude": 39.23316, "longitude": -76.63663, "county": "BALTIMORE CITY", "countyid": 510, "badloc": false},
 {"recid": 69, "fname": "JOHN MICHAEL", "lname": "BIONDI", "hasphoto": true, "photo": null, "hometown": " MOUNT RAINIER", "latitude": 38.9415, "longitude": -76.96498, "county": "PRINCE GEORGES", "countyid": 33, "badloc": false},
 {"recid": 70, "fname": "ROGER WAYNE", "lname": "BISHOP", "hasphoto": true, "photo": null, "hometown": " BELTSVILLE", "latitude": 39.03483, "longitude": -76.90747, "county": "PRINCE GEORGES", "countyid": 33, "badloc": false},
 {"recid": 71, "fname": "WILLIAM RONALD", "lname": "BISSELL", "hasphoto": true, "photo": null, "hometown": " CABIN JOHN", "latitude": 38.97539, "longitude": -77.15803, "county": "MONTGOMERY", "countyid": 31, "badloc": false},
 {"recid": 72, "fname": "ROBERT LEE JR", "lname": "BITTINGER", "hasphoto": true, "photo": null, "hometown": " CUMBERLAND", "latitude": -77, "longitude": 39, "county": "ALLEGANY", "countyid": 1, "badloc": false},
 {"recid": 73, "fname": "FREDERICK WOOD JR", "lname": "BIVENS", "hasphoto": true, "photo": null, "hometown": " POCOMOKE", "latitude": 38.07568, "longitude": -75.56798, "county": "WORCESTER", "countyid": 47, "badloc": false},
 {"recid": 74, "fname": "THOMAS NELSON", "lname": "BLADES", "hasphoto": true, "photo": null, "hometown": " EASTON", "latitude": -77, "longitude": 39, "county": "TALBOT", "countyid": 41, "badloc": false},
 {"recid": 75, "fname": "DANNY LEE", "lname": "BLAKE", "hasphoto": true, "photo": null, "hometown": " BALTIMORE", "latitude": 39.23316, "longitude": -76.63663, "county": "BALTIMORE CITY", "countyid": 510, "badloc": false},
 {"recid": 76, "fname": "ROGER LEE", "lname": "BLAKE", "hasphoto": true, "photo": null, "hometown": " BALTIMORE", "latitude": 39.23316, "longitude": -76.63663, "county": "BALTIMORE CITY", "countyid": 510, "badloc": false},
 {"recid": 77, "fname": "GREGORY ALLEN", "lname": "BLAKENEY", "hasphoto": true, "photo": null, "hometown": " BALTIMORE", "latitude": 39.23316, "longitude": -76.63663, "county": "BALTIMORE CITY", "countyid": 510, "badloc": false},
 {"recid": 78, "fname": "RICHARD ALLEN", "lname": "BLANCHFIELD", "hasphoto": true, "photo": null, "hometown": " PERRY HALL", "latitude": 39.41261, "longitude": -76.46357, "county": "BALTIMORE", "countyid": 510, "badloc": false},
 {"recid": 79, "fname": "GILBERT", "lname": "BLANDON", "hasphoto": true, "photo": null, "hometown": " BALTIMORE", "latitude": 39.23316, "longitude": -76.63663, "county": "BALTIMORE CITY", "countyid": 510, "badloc": false},
 {"recid": 80, "fname": "CHARLES HERMAN", "lname": "BLANKENSHIP", "hasphoto": true, "photo": null, "hometown": " SUITLAND", "latitude": 38.84872, "longitude": -76.92386, "county": "PRINCE GEORGES", "countyid": 33, "badloc": false},
 {"recid": 81, "fname": "JOHN JAMES", "lname": "BLANTON", "hasphoto": true, "photo": null, "hometown": " BALTIMORE", "latitude": 39.23316, "longitude": -76.63663, "county": "BALTIMORE CITY", "countyid": 510, "badloc": false},
 {"recid": 82, "fname": "CLIFFORD CRAIG JR", "lname": "BLEND", "hasphoto": true, "photo": null, "hometown": " BRANDYWINE", "latitude": 38.69678, "longitude": -76.84775, "county": "PRINCE GEORGES", "countyid": 33, "badloc": false},
 {"recid": 83, "fname": "JOSEPH W JR", "lname": "BLICKENSTAFF", "hasphoto": true, "photo": null, "hometown": "LITTLESTOWN PA", "latitude": -77, "longitude": 39, "county": "OTHER", "countyid": 999, "badloc": false},
 {"recid": 84, "fname": "MICHAEL J", "lname": "BLOTTENBERGER", "hasphoto": true, "photo": null, "hometown": " BALTIMORE", "latitude": 39.23316, "longitude": -76.63663, "county": "BALTIMORE CITY", "countyid": 510, "badloc": false},
 {"recid": 85, "fname": "EDWARD ALLEN", "lname": "BOARDMAN", "hasphoto": true, "photo": null, "hometown": " PASADENA", "latitude": 39.10733, "longitude": -76.57108, "county": "ANNE ARUNDEL", "countyid": 3, "badloc": false},
 {"recid": 86, "fname": "GARLAND CLAUDE", "lname": "BOBBITT", "hasphoto": true, "photo": null, "hometown": " BELTSVILLE", "latitude": 39.03483, "longitude": -76.90747, "county": "PRINCE GEORGES", "countyid": 33, "badloc": false},
 {"recid": 87, "fname": "MACK CLIFORD", "lname": "BOBLETT", "hasphoto": true, "photo": null, "hometown": "STANAFORD WV", "latitude": -77, "longitude": 39, "county": "OTHER", "countyid": 999, "badloc": false},
 {"recid": 88, "fname": "LEONARD JOSEPH", "lname": "BOCEK", "hasphoto": true, "photo": null, "hometown": " BALTIMORE", "latitude": 39.23316, "longitude": -76.63663, "county": "BALTIMORE CITY", "countyid": 510, "badloc": false},
 {"recid": 89, "fname": "WILLIAM JOSEPH", "lname": "BOEHM", "hasphoto": true, "photo": null, "hometown": " SILVER SPRING", "latitude": 38.99067, "longitude": -77.02609, "county": "MONTGOMERY", "countyid": 31, "badloc": false},
 {"recid": 90, "fname": "ROBERT LOUIS", "lname": "BOLAN", "hasphoto": true, "photo": null, "hometown": " PASADENA", "latitude": 39.10733, "longitude": -76.57108, "county": "ANNE ARUNDEL", "countyid": 3, "badloc": false},
 {"recid": 91, "fname": "WILLIAM ROSS", "lname": "BOND", "hasphoto": true, "photo": null, "hometown": " RELAY", "latitude": 39.22788, "longitude": -76.70303, "county": "BALTIMORE", "countyid": 510, "badloc": false},
 {"recid": 92, "fname": "GEORGE FABIAN", "lname": "BONNETT", "hasphoto": true, "photo": null, "hometown": " BALTIMORE", "latitude": 39.23316, "longitude": -76.63663, "county": "BALTIMORE CITY", "countyid": 510, "badloc": false},
 {"recid": 93, "fname": "HARRY JULIAN", "lname": "BORT", "hasphoto": true, "photo": null, "hometown": " LANDOVER", "latitude": 38.934, "longitude": -76.89664, "county": "PRINCE GEORGES", "countyid": 33, "badloc": false},
 {"recid": 94, "fname": "GARY LEE", "lname": "BOUNDS", "hasphoto": true, "photo": null, "hometown": " SALISBURY", "latitude": 38.40481, "longitude": -75.56508, "county": "WICOMICO", "countyid": 45, "badloc": false},
 {"recid": 95, "fname": "JOHN MICHAEL", "lname": "BOWERS", "hasphoto": true, "photo": null, "hometown": " SILVER SPRING", "latitude": 38.99067, "longitude": -77.02609, "county": "MONTGOMERY", "countyid": 31, "badloc": false},
 {"recid": 96, "fname": "DAVID BICKNEL", "lname": "BOWLING", "hasphoto": true, "photo": null, "hometown": " LA PLATA", "latitude": -77, "longitude": 39, "county": "CHARLES", "countyid": 17, "badloc": false},
 {"recid": 97, "fname": "REGINALD ALONZO", "lname": "BOWMAN", "hasphoto": true, "photo": null, "hometown": " BALTIMORE", "latitude": 39.23316, "longitude": -76.63663, "county": "BALTIMORE CITY", "countyid": 510, "badloc": false},
 {"recid": 98, "fname": "MARVIN", "lname": "BURNEY", "hasphoto": true, "photo": null, "hometown": " BALTIMORE", "latitude": 39.23316, "longitude": -76.63663, "county": "BALTIMORE CITY", "countyid": 510, "badloc": false},
 {"recid": 99, "fname": "PAUL THOMAS", "lname": "BURRIER", "hasphoto": true, "photo": null, "hometown": " CATONSVILLE", "latitude": 39.27205, "longitude": -76.73192, "county": "BALTIMORE", "countyid": 510, "badloc": false},
 {"recid": 100, "fname": "ROBERTS PATON", "lname": "BURROWS", "hasphoto": true, "photo": null, "hometown": " DENTON", "latitude": -77, "longitude": 39, "county": "CAROLINE", "countyid": 11, "badloc": false},
 {"recid": 101, "fname": "JOHN LEE", "lname": "BURTON", "hasphoto": true, "photo": null, "hometown": " BALTIMORE", "latitude": 39.23316, "longitude": -76.63663, "county": "BALTIMORE CITY", "countyid": 510, "badloc": false},
 {"recid": 102, "fname": "NATHANIEL", "lname": "BUSH", "hasphoto": true, "photo": null, "hometown": " BALTIMORE", "latitude": 39.23316, "longitude": -76.63663, "county": "BALTIMORE CITY", "countyid": 510, "badloc": false},
 {"recid": 103, "fname": "CHARLES GILMAN JR", "lname": "BUTLER", "hasphoto": true, "photo": null, "hometown": " SILVER SPRING", "latitude": 38.99067, "longitude": -77.02609, "county": "MONTGOMERY", "countyid": 31, "badloc": false},
 {"recid": 104, "fname": "DONALD H", "lname": "BUTTERWORTH", "hasphoto": true, "photo": null, "hometown": " BALTIMORE", "latitude": 39.23316, "longitude": -76.63663, "county": "BALTIMORE CITY", "countyid": 510, "badloc": false},
 {"recid": 105, "fname": "JAMES NORMAN", "lname": "BYERS", "hasphoto": true, "photo": null, "hometown": " WESTMINSTER", "latitude": -77, "longitude": 39, "county": "CARROLL", "countyid": 13, "badloc": false},
 {"recid": 106, "fname": "NOLAN DARYL", "lname": "BYRD", "hasphoto": true, "photo": null, "hometown": " HAGERSTOWN", "latitude": -77, "longitude": 39, "county": "WASHINGTON", "countyid": 43, "badloc": false},
 {"recid": 107, "fname": "NORMAN CECIL", "lname": "BYRD", "hasphoto": true, "photo": null, "hometown": " BALTIMORE", "latitude": 39.23316, "longitude": -76.63663, "county": "BALTIMORE CITY", "countyid": 510, "badloc": false},
 {"recid": 108, "fname": "DONALD PATRICK", "lname": "CALDWELL", "hasphoto": true, "photo": null, "hometown": " BERWYN HEIGHTS", "latitude": 38.994, "longitude": -76.91053, "county": "PRINCE GEORGES", "countyid": 33, "badloc": false},
 {"recid": 109, "fname": "GERALD LEE", "lname": "CALL", "hasphoto": true, "photo": null, "hometown": " ABERDEEN", "latitude": 39.50956, "longitude": -76.16412, "county": "HARFORD", "countyid": 25, "badloc": false},
 {"recid": 110, "fname": "JOHN HENRY III", "lname": "CALL", "hasphoto": true, "photo": null, "hometown": " POTOMAC", "latitude": 39.56759, "longitude": -78.83891, "county": "MONTGOMERY", "countyid": 31, "badloc": true},
 {"recid": 111, "fname": "FRANCIS EDWARD JR", "lname": "CAMDEN", "hasphoto": true, "photo": null, "hometown": " WHEATON", "latitude": 39.03983, "longitude": -77.05526, "county": "MONTGOMERY", "countyid": 31, "badloc": false},
 {"recid": 112, "fname": "JOHN HOLMES JR", "lname": "CAMP", "hasphoto": true, "photo": null, "hometown": "WASHINGTON DC", "latitude": -77, "longitude": 39, "county": "OTHER", "countyid": 999, "badloc": false},
 {"recid": 113, "fname": "DARRELL EDWARD", "lname": "CAMPANELLO", "hasphoto": true, "photo": null, "hometown": " SILVER SPRING", "latitude": 38.99067, "longitude": -77.02609, "county": "MONTGOMERY", "countyid": 31, "badloc": false},
 {"recid": 114, "fname": "JACK EDWIN", "lname": "CAMPBELL", "hasphoto": true, "photo": null, "hometown": " OELLA", "latitude": 39.274, "longitude": -76.78664, "county": "BALTIMORE", "countyid": 510, "badloc": false},
 {"recid": 115, "fname": "WILLIAM LADD", "lname": "CAMPBELL", "hasphoto": true, "photo": null, "hometown": " SILVER HILL", "latitude": 39.45621, "longitude": -77.31443, "county": "PRINCE GEORGES", "countyid": 33, "badloc": false},
 {"recid": 116, "fname": "GARY EDWARD", "lname": "CANAPP", "hasphoto": true, "photo": null, "hometown": " BALTIMORE", "latitude": 39.23316, "longitude": -76.63663, "county": "BALTIMORE CITY", "countyid": 510, "badloc": false},
 {"recid": 117, "fname": "JAMES KENNETH", "lname": "CANIFORD", "hasphoto": true, "photo": null, "hometown": " FREDERICK", "latitude": 39.294, "longitude": -76.59636, "county": "FREDERICK", "countyid": 21, "badloc": false},
 {"recid": 118, "fname": "JAMES B JR", "lname": "CANNINGTON", "hasphoto": true, "photo": null, "hometown": " BALTIMORE", "latitude": 39.23316, "longitude": -76.63663, "county": "BALTIMORE CITY", "countyid": 510, "badloc": false},
 {"recid": 119, "fname": "DENNIS RICHARD", "lname": "CANTLER", "hasphoto": true, "photo": null, "hometown": " BALTIMORE", "latitude": 39.23316, "longitude": -76.63663, "county": "BALTIMORE CITY", "countyid": 510, "badloc": false},
 {"recid": 120, "fname": "JOHN ALAN", "lname": "CAPASSO", "hasphoto": true, "photo": null, "hometown": " ROCKVILLE", "latitude": -77, "longitude": 39, "county": "MONTGOMERY", "countyid": 31, "badloc": false},
 {"recid": 121, "fname": "WOODROW FRANKLIN", "lname": "CARBAUGH", "hasphoto": true, "photo": null, "hometown": " THURMONT", "latitude": 39.62371, "longitude": -77.41082, "county": "FREDERICK", "countyid": 21, "badloc": false},
 {"recid": 122, "fname": "ROBERT MATTHEW", "lname": "CARLOZZI", "hasphoto": true, "photo": null, "hometown": " WHEATON", "latitude": 39.03983, "longitude": -77.05526, "county": "MONTGOMERY", "countyid": 31, "badloc": false},
 {"recid": 123, "fname": "JOSEPH KENNETH", "lname": "CARROLL", "hasphoto": true, "photo": null, "hometown": " BRYANS ROAD", "latitude": 38.62706, "longitude": -77.07303, "county": "CHARLES", "countyid": 17, "badloc": false},
 {"recid": 124, "fname": "ANDERSON JR", "lname": "CARTER", "hasphoto": true, "photo": null, "hometown": " BALTIMORE", "latitude": 39.23316, "longitude": -76.63663, "county": "BALTIMORE CITY", "countyid": 510, "badloc": false},
 {"recid": 125, "fname": "GEORGE ALBERT", "lname": "CARTER", "hasphoto": true, "photo": null, "hometown": " BALTIMORE", "latitude": 39.23316, "longitude": -76.63663, "county": "BALTIMORE CITY", "countyid": 510, "badloc": false},
 {"recid": 126, "fname": "HARVEY WILLIAM", "lname": "CARTER", "hasphoto": true, "photo": null, "hometown": " GLEN BURNIE", "latitude": 39.16261, "longitude": -76.62469, "county": "ANNE ARUNDEL", "countyid": 3, "badloc": false},
 {"recid": 127, "fname": "WALTER CORBIN", "lname": "CARTER", "hasphoto": true, "photo": null, "hometown": " REISTERSTOWN", "latitude": 39.46955, "longitude": -76.82942, "county": "BALTIMORE", "countyid": 510, "badloc": false},
 {"recid": 128, "fname": "JAMES GILBERT", "lname": "CASE", "hasphoto": true, "photo": null, "hometown": " CUMBERLAND", "latitude": -77, "longitude": 39, "county": "ALLEGANY", "countyid": 1, "badloc": false},
 {"recid": 129, "fname": "LEWIS EDGAR JR", "lname": "CASNER", "hasphoto": true, "photo": null, "hometown": " POTOMAC", "latitude": 39.56759, "longitude": -78.83891, "county": "MONTGOMERY", "countyid": 31, "badloc": true},
 {"recid": 130, "fname": "RONALD BRETT", "lname": "CASSELL", "hasphoto": true, "photo": null, "hometown": " BALTIMORE", "latitude": 39.23316, "longitude": -76.63663, "county": "BALTIMORE CITY", "countyid": 510, "badloc": false},
 {"recid": 131, "fname": "WILLIAM EDWARD", "lname": "CASSIDY", "hasphoto": true, "photo": null, "hometown": " BALTIMORE", "latitude": 39.23316, "longitude": -76.63663, "county": "BALTIMORE CITY", "countyid": 510, "badloc": false},
 {"recid": 132, "fname": "JOAQUIN", "lname": "CASTRO", "hasphoto": true, "photo": null, "hometown": " MOUNT RAINIER", "latitude": 38.9415, "longitude": -76.96498, "county": "PRINCE GEORGES", "countyid": 33, "badloc": false},
 {"recid": 133, "fname": "MAURICE P JR", "lname": "CHAPMAN", "hasphoto": true, "photo": null, "hometown": " HARWOOD", "latitude": 38.86539, "longitude": -76.61996, "county": "ANNE ARUNDEL", "countyid": 3, "badloc": false},
 {"recid": 134, "fname": "JOHN JOSEPH", "lname": "CHASE", "hasphoto": true, "photo": null, "hometown": " LAUREL", "latitude": 39.09928, "longitude": -76.84831, "county": "PRINCE GEORGES", "countyid": 33, "badloc": false},
 {"recid": 135, "fname": "JOHN LENWOOD", "lname": "CHASE", "hasphoto": true, "photo": null, "hometown": " LEXINGTON PARK", "latitude": 38.26679, "longitude": -76.45384, "county": "SAINT MARYS", "countyid": 37, "badloc": false},
 {"recid": 136, "fname": "ERVIN BENJAMIN", "lname": "CHERRY", "hasphoto": true, "photo": null, "hometown": " BALTIMORE", "latitude": 39.23316, "longitude": -76.63663, "county": "BALTIMORE CITY", "countyid": 510, "badloc": false},
 {"recid": 137, "fname": "EUGENE NATHANIEL", "lname": "CHESLEY", "hasphoto": true, "photo": null, "hometown": " BALTIMORE", "latitude": 39.23316, "longitude": -76.63663, "county": "BALTIMORE CITY", "countyid": 510, "badloc": false},
 {"recid": 138, "fname": "ROBERT RICHARD", "lname": "CHESSER", "hasphoto": true, "photo": null, "hometown": "HIGHLAND SPRINGS VA", "latitude": -77, "longitude": 39, "county": "OTHER", "countyid": 999, "badloc": false},
 {"recid": 139, "fname": "CALVIN JEFFERY", "lname": "CHILDRESS", "hasphoto": true, "photo": null, "hometown": " BALTIMORE", "latitude": 39.23316, "longitude": -76.63663, "county": "BALTIMORE CITY", "countyid": 510, "badloc": false},
 {"recid": 140, "fname": "ALEXANDER SCHELEPH", "lname": "CHIN", "hasphoto": true, "photo": null, "hometown": " BALTIMORE", "latitude": 39.23316, "longitude": -76.63663, "county": "BALTIMORE CITY", "countyid": 510, "badloc": false},
 {"recid": 141, "fname": "ROBERT NORRIS", "lname": "CHINQUINA", "hasphoto": true, "photo": null, "hometown": " BALTIMORE", "latitude": 39.23316, "longitude": -76.63663, "county": "BALTIMORE CITY", "countyid": 510, "badloc": false},
 {"recid": 142, "fname": "LARRY VINCENT", "lname": "CHMIEL", "hasphoto": true, "photo": null, "hometown": " BALTIMORE", "latitude": 39.23316, "longitude": -76.63663, "county": "BALTIMORE CITY", "countyid": 510, "badloc": false},
 {"recid": 143, "fname": "WILLIAM J III", "lname": "CHRISTMAN", "hasphoto": true, "photo": null, "hometown": " GAITHERSBURG", "latitude": 39.14344, "longitude": -77.20137, "county": "MONTGOMERY", "countyid": 31, "badloc": false},
 {"recid": 144, "fname": "WAYNE EDWARD", "lname": "CHRISTOPHER", "hasphoto": true, "photo": null, "hometown": " LANSDOWNE", "latitude": 39.24511, "longitude": -76.66052, "county": "BALTIMORE", "countyid": 510, "badloc": false},
 {"recid": 145, "fname": "RUSSELL E.", "lname": "CILBERRY", "hasphoto": true, "photo": null, "hometown": "?", "latitude": -77, "longitude": 39, "county": "OTHER", "countyid": 999, "badloc": false},
 {"recid": 146, "fname": "LARRY MONROE", "lname": "CLARK", "hasphoto": true, "photo": null, "hometown": " OLNEY", "latitude": 39.15316, "longitude": -77.06692, "county": "MONTGOMERY", "countyid": 31, "badloc": false},
 {"recid": 147, "fname": "DAVID NELSON", "lname": "CLAYTON", "hasphoto": true, "photo": null, "hometown": " PERRYVILLE", "latitude": 39.56011, "longitude": -76.07134, "county": "CECIL", "countyid": 15, "badloc": false},
 {"recid": 148, "fname": "LIONEL TIMOTHY", "lname": "CLOVER", "hasphoto": true, "photo": null, "hometown": " COLLEGE PARK", "latitude": 39.00872, "longitude": -76.95109, "county": "PRINCE GEORGES", "countyid": 33, "badloc": false},
 {"recid": 149, "fname": "LEON", "lname": "COIT", "hasphoto": true, "photo": null, "hometown": " BALTIMORE", "latitude": 39.23316, "longitude": -76.63663, "county": "BALTIMORE CITY", "countyid": 510, "badloc": false},
 {"recid": 150, "fname": "ERNEST WESLEY", "lname": "COLE", "hasphoto": true, "photo": null, "hometown": " SILVER SPRING", "latitude": 38.99067, "longitude": -77.02609, "county": "MONTGOMERY", "countyid": 31, "badloc": false},
 {"recid": 151, "fname": "RAINER LOUIS", "lname": "COLE", "hasphoto": true, "photo": null, "hometown": " GAMBRILLS", "latitude": 39.06705, "longitude": -76.66524, "county": "ANNE ARUNDEL", "countyid": 3, "badloc": false},
 {"recid": 152, "fname": "RONALD ALLEN", "lname": "COLEMAN", "hasphoto": true, "photo": null, "hometown": " BALTIMORE", "latitude": 39.23316, "longitude": -76.63663, "county": "BALTIMORE CITY", "countyid": 510, "badloc": false},
 {"recid": 153, "fname": "GENE FRANCIS", "lname": "COLLIER", "hasphoto": true, "photo": null, "hometown": " BALTIMORE", "latitude": 39.23316, "longitude": -76.63663, "county": "BALTIMORE CITY", "countyid": 510, "badloc": false},
 {"recid": 154, "fname": "FRANCIS BRYANT", "lname": "CONCANNON", "hasphoto": true, "photo": null, "hometown": " FORESTVILLE", "latitude": 38.84511, "longitude": -76.87497, "county": "PRINCE GEORGES", "countyid": 33, "badloc": false},
 {"recid": 155, "fname": "AUDREY JULIUS", "lname": "COOK", "hasphoto": true, "photo": null, "hometown": " BALTIMORE", "latitude": 39.23316, "longitude": -76.63663, "county": "BALTIMORE CITY", "countyid": 510, "badloc": false},
 {"recid": 156, "fname": "DAVID RICHARD", "lname": "COOK", "hasphoto": true, "photo": null, "hometown": " BALTIMORE", "latitude": 39.23316, "longitude": -76.63663, "county": "BALTIMORE CITY", "countyid": 510, "badloc": false},
 {"recid": 157, "fname": "ROBERT WILKINSON", "lname": "COOK", "hasphoto": true, "photo": null, "hometown": " CLAIBORNE", "latitude": 38.83762, "longitude": -76.27773, "county": "TALBOT", "countyid": 41, "badloc": false},
 {"recid": 158, "fname": "WILMER PAUL", "lname": "COOK", "hasphoto": true, "photo": null, "hometown": " ANNAPOLIS", "latitude": 38.97845, "longitude": -76.49218, "county": "ANNE ARUNDEL", "countyid": 3, "badloc": false},
 {"recid": 159, "fname": "WILSON LEE", "lname": "COOK", "hasphoto": true, "photo": null, "hometown": " FREDERICK", "latitude": 39.294, "longitude": -76.59636, "county": "FREDERICK", "countyid": 21, "badloc": false},
 {"recid": 160, "fname": "JAMES EDWARD", "lname": "COOLEY", "hasphoto": true, "photo": null, "hometown": " BALTIMORE", "latitude": 39.23316, "longitude": -76.63663, "county": "BALTIMORE CITY", "countyid": 510, "badloc": false},
 {"recid": 161, "fname": "OSCAR EDMOND", "lname": "COOPER", "hasphoto": true, "photo": null, "hometown": " BEL AIR", "latitude": 38.63095, "longitude": -76.92525, "county": "HARFORD", "countyid": 25, "badloc": true},
 {"recid": 162, "fname": "RICHARD WALLER JR", "lname": "COOPER", "hasphoto": true, "photo": null, "hometown": " SALISBURY", "latitude": 38.40481, "longitude": -75.56508, "county": "WICOMICO", "countyid": 45, "badloc": false},
 {"recid": 163, "fname": "GREGORY SCOTT", "lname": "COPENHAVER", "hasphoto": true, "photo": null, "hometown": " PORT DEPOSIT", "latitude": 39.60483, "longitude": -76.11523, "county": "CECIL", "countyid": 15, "badloc": false},
 {"recid": 164, "fname": "WILLIAM JENNINGS", "lname": "CORBIN", "hasphoto": true, "photo": null, "hometown": " JOPPA", "latitude": 39.43372, "longitude": -76.35774, "county": "HARFORD", "countyid": 25, "badloc": false},
 {"recid": 165, "fname": "GARY WAYNE", "lname": "COSGROVE", "hasphoto": true, "photo": null, "hometown": " FREDERICK", "latitude": 39.294, "longitude": -76.59636, "county": "FREDERICK", "countyid": 21, "badloc": false},
 {"recid": 166, "fname": "JEREMIAH FREDERICK", "lname": "COSTELLO", "hasphoto": true, "photo": null, "hometown": " CHEVY CHASE", "latitude": 38.97122, "longitude": -77.07637, "county": "MONTGOMERY", "countyid": 31, "badloc": false},
 {"recid": 167, "fname": "ROBERT LEE", "lname": "COTTMAN", "hasphoto": true, "photo": null, "hometown": " PRINCESS ANNE", "latitude": -77, "longitude": 39, "county": "SOMERSET", "countyid": 39, "badloc": false},
 {"recid": 168, "fname": "GEORGE MARION II", "lname": "COX", "hasphoto": true, "photo": null, "hometown": " BALTIMORE", "latitude": 39.23316, "longitude": -76.63663, "county": "BALTIMORE CITY", "countyid": 510, "badloc": false},
 {"recid": 169, "fname": "JEHU JUNIS JR", "lname": "COX", "hasphoto": true, "photo": null, "hometown": " BALTIMORE", "latitude": 39.23316, "longitude": -76.63663, "county": "BALTIMORE CITY", "countyid": 510, "badloc": false},
 {"recid": 170, "fname": "KEVIN MARK", "lname": "COYNE", "hasphoto": true, "photo": null, "hometown": " SILVER SPRING", "latitude": 38.99067, "longitude": -77.02609, "county": "MONTGOMERY", "countyid": 31, "badloc": false},
 {"recid": 171, "fname": "EZRA DELANO", "lname": "CRAFT", "hasphoto": true, "photo": null, "hometown": " BALTIMORE", "latitude": 39.23316, "longitude": -76.63663, "county": "BALTIMORE CITY", "countyid": 510, "badloc": false},
 {"recid": 172, "fname": "DEAN JOHN", "lname": "CRAIG", "hasphoto": true, "photo": null, "hometown": " PASADENA", "latitude": 39.10733, "longitude": -76.57108, "county": "ANNE ARUNDEL", "countyid": 3, "badloc": false},
 {"recid": 173, "fname": "KENNETH D.", "lname": "CRAWFORD", "hasphoto": true, "photo": null, "hometown": "LONACONNG", "latitude": -77, "longitude": 39, "county": "ALLEGANY", "countyid": 1, "badloc": false},
 {"recid": 174, "fname": "CARL JOSEPH", "lname": "CREW", "hasphoto": true, "photo": null, "hometown": " BETTERTON", "latitude": 39.36595, "longitude": -76.06217, "county": "KENT", "countyid": 29, "badloc": false},
 {"recid": 175, "fname": "HARRY ELIAS JR", "lname": "CRISSEY", "hasphoto": true, "photo": null, "hometown": " BALTIMORE", "latitude": 39.23316, "longitude": -76.63663, "county": "BALTIMORE CITY", "countyid": 510, "badloc": false},
 {"recid": 176, "fname": "WOODROW CHARLES", "lname": "CRONKRITE", "hasphoto": true, "photo": null, "hometown": " SUITLAND", "latitude": 38.84872, "longitude": -76.92386, "county": "PRINCE GEORGES", "countyid": 33, "badloc": false},
 {"recid": 177, "fname": "GERALD LEE", "lname": "CROSBY", "hasphoto": true, "photo": null, "hometown": " ROCKVILLE", "latitude": -77, "longitude": 39, "county": "MONTGOMERY", "countyid": 31, "badloc": false},
 {"recid": 178, "fname": "DAVID PAUL", "lname": "CROZIER", "hasphoto": true, "photo": null, "hometown": " BALTIMORE", "latitude": 39.23316, "longitude": -76.63663, "county": "BALTIMORE CITY", "countyid": 510, "badloc": false},
 {"recid": 179, "fname": "VICTOR LINCOLN", "lname": "CRUMP", "hasphoto": true, "photo": null, "hometown": " BALTIMORE", "latitude": 39.23316, "longitude": -76.63663, "county": "BALTIMORE CITY", "countyid": 510, "badloc": false},
 {"recid": 180, "fname": "DONALD CLAIR", "lname": "CRUTCHLEY", "hasphoto": true, "photo": null, "hometown": " BALTIMORE", "latitude": 39.23316, "longitude": -76.63663, "county": "BALTIMORE CITY", "countyid": 510, "badloc": false},
 {"recid": 181, "fname": "PAUL ANTHONY", "lname": "CUMBERLAND", "hasphoto": true, "photo": null, "hometown": " COLLEGE PARK", "latitude": 39.00872, "longitude": -76.95109, "county": "PRINCE GEORGES", "countyid": 33, "badloc": false},
 {"recid": 182, "fname": "JAMES R JR", "lname": "CUMBERPATCH", "hasphoto": true, "photo": null, "hometown": " BETHESDA", "latitude": 38.98067, "longitude": -77.10026, "county": "MONTGOMERY", "countyid": 31, "badloc": false},
 {"recid": 183, "fname": "RICHARD SAVAGE", "lname": "CUNNINGHAM", "hasphoto": true, "photo": null, "hometown": " SPENCERVILLE", "latitude": 39.11427, "longitude": -76.97831, "county": "MONTGOMERY", "countyid": 31, "badloc": false},
 {"recid": 184, "fname": "BERNARD EUGENE", "lname": "CURTIS", "hasphoto": true, "photo": null, "hometown": " UPPER MARLBORO", "latitude": -77, "longitude": 39, "county": "PRINCE GEORGES", "countyid": 33, "badloc": false},
 {"recid": 185, "fname": "JOSEPH PAUL", "lname": "CURTIS", "hasphoto": true, "photo": null, "hometown": " HOLLYWOOD", "latitude": 39.07511, "longitude": -76.5858, "county": "SAINT MARYS", "countyid": 37, "badloc": false},
 {"recid": 186, "fname": "HENRY DAVID", "lname": "CUSTEN", "hasphoto": true, "photo": null, "hometown": " WHEATON", "latitude": 39.03983, "longitude": -77.05526, "county": "MONTGOMERY", "countyid": 31, "badloc": false},
 {"recid": 187, "fname": "KENNETH JULIAN", "lname": "CYMBALSKI", "hasphoto": true, "photo": null, "hometown": " ROCKVILLE", "latitude": -77, "longitude": 39, "county": "MONTGOMERY", "countyid": 31, "badloc": false},
 {"recid": 188, "fname": "JOSEPH VERBERT", "lname": "CZAJKOWSKI", "hasphoto": true, "photo": null, "hometown": " BALTIMORE", "latitude": 39.23316, "longitude": -76.63663, "county": "BALTIMORE CITY", "countyid": 510, "badloc": false},
 {"recid": 189, "fname": "GARY ROBERT", "lname": "DAFFIN", "hasphoto": true, "photo": null, "hometown": " BALTIMORE", "latitude": 39.23316, "longitude": -76.63663, "county": "BALTIMORE CITY", "countyid": 510, "badloc": false},
 {"recid": 190, "fname": "CHARLES RICHARD", "lname": "DALE", "hasphoto": true, "photo": null, "hometown": " GAITHERSBURG", "latitude": 39.14344, "longitude": -77.20137, "county": "MONTGOMERY", "countyid": 31, "badloc": false},
 {"recid": 191, "fname": "DENNIS HUMPHREY", "lname": "DALE", "hasphoto": true, "photo": null, "hometown": " BALTIMORE", "latitude": 39.23316, "longitude": -76.63663, "county": "BALTIMORE CITY", "countyid": 510, "badloc": false},
 {"recid": 192, "fname": "TOUSSAINT O JR", "lname": "DALTON", "hasphoto": true, "photo": null, "hometown": " BALTIMORE", "latitude": 39.23316, "longitude": -76.63663, "county": "BALTIMORE CITY", "countyid": 510, "badloc": false},
 {"recid": 193, "fname": "JOSEPH PETER", "lname": "DASTOLI", "hasphoto": true, "photo": null, "hometown": " CHILLUM", "latitude": 38.96372, "longitude": -76.99081, "county": "PRINCE GEORGES", "countyid": 33, "badloc": false},
 {"recid": 194, "fname": "WILLIAM JOHN", "lname": "DAUBERT", "hasphoto": true, "photo": null, "hometown": " EDEN", "latitude": 38.28068, "longitude": -75.65104, "county": "SOMERSET", "countyid": 39, "badloc": false},
 {"recid": 195, "fname": "DAVID ARTHUR", "lname": "DAVIDSON", "hasphoto": true, "photo": null, "hometown": " EAST RIVERDALE", "latitude": 38.96206, "longitude": -76.92192, "county": "PRINCE GEORGES", "countyid": 33, "badloc": false},
 {"recid": 196, "fname": "THOMAS RAYMOND", "lname": "DAVIS", "hasphoto": true, "photo": null, "hometown": " FROSTBURG", "latitude": 39.65814, "longitude": -78.92836, "county": "ALLEGANY", "countyid": 1, "badloc": false},
 {"recid": 197, "fname": "WILLIAM CLARENCE", "lname": "DAYTON", "hasphoto": true, "photo": null, "hometown": " ROSS NECK", "latitude": -77, "longitude": 39, "county": "DORCHESTER", "countyid": 19, "badloc": false},
 {"recid": 198, "fname": "JOHN CHARLES J", "lname": "DE MARR", "hasphoto": true, "photo": null, "hometown": " WHITE PLAINS", "latitude": 38.5904, "longitude": -76.94025, "county": "CHARLES", "countyid": 17, "badloc": false},
 {"recid": 199, "fname": "JOHN", "lname": "DE MEY", "hasphoto": true, "photo": null, "hometown": " ANNAPOLIS", "latitude": 38.97845, "longitude": -76.49218, "county": "ANNE ARUNDEL", "countyid": 3, "badloc": false},
 {"recid": 200, "fname": "CARL ANDREW", "lname": "DEAN", "hasphoto": true, "photo": null, "hometown": " EDGEWATER", "latitude": 38.95706, "longitude": -76.54996, "county": "ANNE ARUNDEL", "countyid": 3, "badloc": false},
 {"recid": 201, "fname": "JAMES JEROME JR", "lname": "DEASEL", "hasphoto": true, "photo": null, "hometown": " BALTIMORE", "latitude": 39.23316, "longitude": -76.63663, "county": "BALTIMORE CITY", "countyid": 510, "badloc": false},
 {"recid": 202, "fname": "KENNETH LAMAR JR", "lname": "DEAVERS", "hasphoto": true, "photo": null, "hometown": " WILLIAMSPORT", "latitude": 39.60065, "longitude": -77.82055, "county": "WASHINGTON", "countyid": 43, "badloc": false},
 {"recid": 203, "fname": "PATRICK A JR", "lname": "DECK", "hasphoto": true, "photo": null, "hometown": " CHEVY CHASE", "latitude": 38.97122, "longitude": -77.07637, "county": "MONTGOMERY", "countyid": 31, "badloc": false},
 {"recid": 204, "fname": "STEVEN WILLIAM", "lname": "DECKER", "hasphoto": true, "photo": null, "hometown": " WOODLAWN", "latitude": 39.32288, "longitude": -76.72803, "county": "PRINCE GEORGES", "countyid": 33, "badloc": false},
 {"recid": 205, "fname": "MICHAEL THOMAS", "lname": "DEFIBAUGH", "hasphoto": true, "photo": null, "hometown": " BALTIMORE", "latitude": 39.23316, "longitude": -76.63663, "county": "BALTIMORE CITY", "countyid": 510, "badloc": false},
 {"recid": 206, "fname": "EDWARD PAUL III", "lname": "DEIBEL", "hasphoto": true, "photo": null, "hometown": " BALTIMORE", "latitude": 39.23316, "longitude": -76.63663, "county": "BALTIMORE CITY", "countyid": 510, "badloc": false},
 {"recid": 207, "fname": "GORDON JAMES JR", "lname": "DEITZ", "hasphoto": true, "photo": null, "hometown": " PASADENA", "latitude": 39.10733, "longitude": -76.57108, "county": "ANNE ARUNDEL", "countyid": 3, "badloc": false},
 {"recid": 208, "fname": "THOMAS MITCHELL", "lname": "DEITZ", "hasphoto": true, "photo": null, "hometown": " BALTIMORE", "latitude": 39.23316, "longitude": -76.63663, "county": "BALTIMORE CITY", "countyid": 510, "badloc": false},
 {"recid": 209, "fname": "GEORGE ALLEN", "lname": "DEMBY", "hasphoto": true, "photo": null, "hometown": " CHURCHVILLE", "latitude": 39.56122, "longitude": -76.24551, "county": "HARFORD", "countyid": 25, "badloc": false},
 {"recid": 210, "fname": "CARROLL EDWARD", "lname": "DERRILL", "hasphoto": true, "photo": null, "hometown": " BALTIMORE", "latitude": 39.23316, "longitude": -76.63663, "county": "BALTIMORE CITY", "countyid": 510, "badloc": false},
 {"recid": 211, "fname": "EDWARD J JR", "lname": "DEVINCENT", "hasphoto": true, "photo": null, "hometown": " BALTIMORE", "latitude": 39.23316, "longitude": -76.63663, "county": "BALTIMORE CITY", "countyid": 510, "badloc": false},
 {"recid": 212, "fname": "ROBERT L", "lname": "DEVOE", "hasphoto": true, "photo": null, "hometown": "NORRISVILLE", "latitude": 39.70483, "longitude": -76.53469, "county": "HARFORD", "countyid": 25, "badloc": false},
 {"recid": 213, "fname": "TIMOTHY MORGAN", "lname": "DICK", "hasphoto": true, "photo": null, "hometown": "GREENSBURG PA", "latitude": -77, "longitude": 39, "county": "OTHER", "countyid": 999, "badloc": false},
 {"recid": 214, "fname": "RUSSELL W", "lname": "DICKENS", "hasphoto": true, "photo": null, "hometown": " PINEY POINT", "latitude": 38.14235, "longitude": -76.50745, "county": "SAINT MARYS", "countyid": 37, "badloc": false},
 {"recid": 215, "fname": "JAMES EGBERT", "lname": "DICKERSON", "hasphoto": true, "photo": null, "hometown": " COLLEGE PARK", "latitude": 39.00872, "longitude": -76.95109, "county": "PRINCE GEORGES", "countyid": 33, "badloc": false},
 {"recid": 216, "fname": "ROBERT BOLT III", "lname": "DICKERSON", "hasphoto": true, "photo": null, "hometown": " HYATTSVILLE", "latitude": 38.95594, "longitude": -76.94553, "county": "PRINCE GEORGES", "countyid": 33, "badloc": false},
 {"recid": 217, "fname": "TOMMY EUGENE", "lname": "DICKERSON", "hasphoto": true, "photo": null, "hometown": " ROCKVILLE", "latitude": -77, "longitude": 39, "county": "MONTGOMERY", "countyid": 31, "badloc": false},
 {"recid": 218, "fname": "CARROLL STEPHEN", "lname": "DIEUDONNE", "hasphoto": true, "photo": null, "hometown": " SILVER SPRING", "latitude": 38.99067, "longitude": -77.02609, "county": "MONTGOMERY", "countyid": 31, "badloc": false},
 {"recid": 219, "fname": "MICHAEL", "lname": "DIGENNO", "hasphoto": true, "photo": null, "hometown": " HURLOCK", "latitude": 38.62428, "longitude": -75.85438, "county": "DORCHESTER", "countyid": 19, "badloc": false},
 {"recid": 220, "fname": "LINDEN BROOK", "lname": "DIXON", "hasphoto": true, "photo": null, "hometown": " BERWYN HEIGHTS", "latitude": 38.994, "longitude": -76.91053, "county": "PRINCE GEORGES", "countyid": 33, "badloc": false},
 {"recid": 221, "fname": "WILLIAM ALLEN", "lname": "DIXON", "hasphoto": true, "photo": null, "hometown": " ACCIDENT", "latitude": 39.6287, "longitude": -79.31976, "county": "WASHINGTON", "countyid": 43, "badloc": false},
 {"recid": 222, "fname": "GEORGE HARLAND", "lname": "DIZE", "hasphoto": true, "photo": null, "hometown": " CRISFIELD", "latitude": 39.47039, "longitude": -76.32496, "county": "SOMERSET", "countyid": 39, "badloc": true},
 {"recid": 223, "fname": "JAMES ERWIN", "lname": "DODD", "hasphoto": true, "photo": null, "hometown": " FORT RITCHIE", "latitude": 39.70221, "longitude": -77.50218, "county": "WASHINGTON", "countyid": 43, "badloc": false},
 {"recid": 224, "fname": "THOMAS ALBERT", "lname": "DOLAN", "hasphoto": true, "photo": null, "hometown": " BALTIMORE", "latitude": 39.23316, "longitude": -76.63663, "county": "BALTIMORE CITY", "countyid": 510, "badloc": false},
 {"recid": 225, "fname": "WELLINGTON MARTIN", "lname": "DONAHUE", "hasphoto": true, "photo": null, "hometown": " CUMBERLAND", "latitude": -77, "longitude": 39, "county": "ALLEGANY", "countyid": 1, "badloc": false},
 {"recid": 226, "fname": "EVERETTE LEROY", "lname": "DONALDSON", "hasphoto": true, "photo": null, "hometown": " BALTIMORE", "latitude": 39.23316, "longitude": -76.63663, "county": "BALTIMORE CITY", "countyid": 510, "badloc": false},
 {"recid": 227, "fname": "ROBERT DANIEL", "lname": "DONALDSON", "hasphoto": true, "photo": null, "hometown": " DICKERSON", "latitude": 39.2201, "longitude": -77.42415, "county": "MONTGOMERY", "countyid": 31, "badloc": false},
 {"recid": 228, "fname": "LAWRENCE HENRY", "lname": "DONNELL", "hasphoto": true, "photo": null, "hometown": " ANNAPOLIS", "latitude": 38.97845, "longitude": -76.49218, "county": "ANNE ARUNDEL", "countyid": 3, "badloc": false},
 {"recid": 229, "fname": "DONALD RALPH", "lname": "DORMAN", "hasphoto": true, "photo": null, "hometown": " WEST HYATTSVILLE", "latitude": -77, "longitude": 39, "county": "PRINCE GEORGES", "countyid": 33, "badloc": false},
 {"recid": 230, "fname": "GARDNER", "lname": "DORSEY", "hasphoto": true, "photo": null, "hometown": " CROWNSVILLE", "latitude": 39.02844, "longitude": -76.60135, "county": "ANNE ARUNDEL", "countyid": 3, "badloc": false},
 {"recid": 231, "fname": "JAMES R JR", "lname": "DORSEY", "hasphoto": true, "photo": null, "hometown": " CLEMENTS", "latitude": 38.32624, "longitude": -76.72719, "county": "SAINT MARYS", "countyid": 37, "badloc": false},
 {"recid": 232, "fname": "LUTHER JAMES JR", "lname": "DOSS", "hasphoto": true, "photo": null, "hometown": " GLEN BURNIE", "latitude": 39.16261, "longitude": -76.62469, "county": "ANNE ARUNDEL", "countyid": 3, "badloc": false},
 {"recid": 233, "fname": "TIMOTHY CALVIN", "lname": "DRAKE", "hasphoto": true, "photo": null, "hometown": " RIVERDALE", "latitude": 39.09928, "longitude": -76.5358, "county": "PRINCE GEORGES", "countyid": 33, "badloc": false},
 {"recid": 234, "fname": "WALTER LLOYD", "lname": "DROSD", "hasphoto": true, "photo": null, "hometown": " KENSINGTON", "latitude": 39.08317, "longitude": -76.57996, "county": "MONTGOMERY", "countyid": 31, "badloc": false},
 {"recid": 235, "fname": "BRUCE CHALMERS", "lname": "DUCAT", "hasphoto": true, "photo": null, "hometown": " BETHESDA", "latitude": 38.98067, "longitude": -77.10026, "county": "MONTGOMERY", "countyid": 31, "badloc": false},
 {"recid": 236, "fname": "BARRY WILLIAM", "lname": "DUFF", "hasphoto": true, "photo": null, "hometown": " BALTIMORE", "latitude": 39.23316, "longitude": -76.63663, "county": "BALTIMORE CITY", "countyid": 510, "badloc": false},
 {"recid": 237, "fname": "JAMES HENRY JR", "lname": "DUFFETT", "hasphoto": true, "photo": null, "hometown": " BALTIMORE", "latitude": 39.23316, "longitude": -76.63663, "county": "BALTIMORE CITY", "countyid": 510, "badloc": false},
 {"recid": 238, "fname": "FRANK MELVIN JR", "lname": "DUNSMORE", "hasphoto": true, "photo": null, "hometown": " LANHAM", "latitude": 38.96706, "longitude": -76.86192, "county": "PRINCE GEORGES", "countyid": 33, "badloc": false},
 {"recid": 239, "fname": "RONALD WAYNE", "lname": "DURBIN", "hasphoto": true, "photo": null, "hometown": " CUMBERLAND", "latitude": -77, "longitude": 39, "county": "ALLEGANY", "countyid": 1, "badloc": false},
 {"recid": 240, "fname": "STEPHEN MICHAEL", "lname": "DYDYNSKI", "hasphoto": true, "photo": null, "hometown": " HYATTSVILLE", "latitude": 38.95594, "longitude": -76.94553, "county": "PRINCE GEORGES", "countyid": 33, "badloc": false},
 {"recid": 241, "fname": "LARRY EUGENE", "lname": "DYER", "hasphoto": true, "photo": null, "hometown": " OXON HILL", "latitude": 38.80345, "longitude": -76.9897, "county": "PRINCE GEORGES", "countyid": 33, "badloc": false},
 {"recid": 242, "fname": "LESLIE MILTON JR", "lname": "DYSON", "hasphoto": true, "photo": null, "hometown": " TAKOMA PARK", "latitude": 38.97789, "longitude": -77.00748, "county": "MONTGOMERY", "countyid": 31, "badloc": false},
 {"recid": 243, "fname": "JOSEPH MILTON", "lname": "EASON", "hasphoto": true, "photo": null, "hometown": " EASTON", "latitude": -77, "longitude": 39, "county": "TALBOT", "countyid": 41, "badloc": false},
 {"recid": 244, "fname": "TERRY LEE", "lname": "ECKER", "hasphoto": true, "photo": null, "hometown": " BALTIMORE", "latitude": 39.23316, "longitude": -76.63663, "county": "BALTIMORE CITY", "countyid": 510, "badloc": false},
 {"recid": 245, "fname": "HARRY LEON", "lname": "ECTON", "hasphoto": true, "photo": null, "hometown": " BOONSBORO", "latitude": 38.95011, "longitude": -75.85994, "county": "WASHINGTON", "countyid": 43, "badloc": true},
 {"recid": 246, "fname": "WILLIAM JOHN", "lname": "EDER", "hasphoto": true, "photo": null, "hometown": " BALTIMORE", "latitude": 39.23316, "longitude": -76.63663, "county": "BALTIMORE CITY", "countyid": 510, "badloc": false},
 {"recid": 247, "fname": "JOHN PAUL", "lname": "EDWARDS", "hasphoto": true, "photo": null, "hometown": " BALTIMORE", "latitude": 39.23316, "longitude": -76.63663, "county": "BALTIMORE CITY", "countyid": 510, "badloc": false},
 {"recid": 248, "fname": "CARL M", "lname": "EGOLF", "hasphoto": true, "photo": null, "hometown": " WESTMINSTER", "latitude": -77, "longitude": 39, "county": "CARROLL", "countyid": 13, "badloc": false},
 {"recid": 249, "fname": "RAYMOND LESTER", "lname": "ELLIOTT", "hasphoto": true, "photo": null, "hometown": " CHESTERTOWN", "latitude": -77, "longitude": 39, "county": "QUEEN ANNE", "countyid": 35, "badloc": false},
 {"recid": 250, "fname": "GEORGE LEMUEL", "lname": "ELLIS", "hasphoto": true, "photo": null, "hometown": " GLEN ECHO", "latitude": 38.969, "longitude": -77.14248, "county": "MONTGOMERY", "countyid": 31, "badloc": false},
 {"recid": 251, "fname": "STEWART CHARLES", "lname": "EMERSON", "hasphoto": true, "photo": null, "hometown": " SUNDERLAND", "latitude": 38.67123, "longitude": -76.59801, "county": "CALVERT", "countyid": 9, "badloc": false},
 {"recid": 252, "fname": "LAMONT GEORGE", "lname": "EPPS", "hasphoto": true, "photo": null, "hometown": " BALTIMORE", "latitude": 39.23316, "longitude": -76.63663, "county": "BALTIMORE CITY", "countyid": 510, "badloc": false},
 {"recid": 253, "fname": "CECIL VAUGHN", "lname": "EVANS", "hasphoto": true, "photo": null, "hometown": " SALISBURY", "latitude": 38.40481, "longitude": -75.56508, "county": "WICOMICO", "countyid": 45, "badloc": false},
 {"recid": 254, "fname": "JEFFREY ALAN", "lname": "EVANS", "hasphoto": true, "photo": null, "hometown": " BALTIMORE", "latitude": 39.23316, "longitude": -76.63663, "county": "BALTIMORE CITY", "countyid": 510, "badloc": false},
 {"recid": 255, "fname": "JOHN CHARLES", "lname": "FAIDLEY", "hasphoto": true, "photo": null, "hometown": "NORFOLK VA", "latitude": -77, "longitude": 39, "county": "OTHER", "countyid": 999, "badloc": false},
 {"recid": 256, "fname": "EARL JR", "lname": "FAISON", "hasphoto": true, "photo": null, "hometown": " CATONSVILLE", "latitude": 39.27205, "longitude": -76.73192, "county": "BALTIMORE", "countyid": 510, "badloc": false},
 {"recid": 257, "fname": "BRYANT D", "lname": "FANNIN", "hasphoto": true, "photo": null, "hometown": " BALTIMORE", "latitude": 39.23316, "longitude": -76.63663, "county": "BALTIMORE CITY", "countyid": 510, "badloc": false},
 {"recid": 258, "fname": "CHARLES EDWARD", "lname": "FARMER", "hasphoto": true, "photo": null, "hometown": " BALTIMORE", "latitude": 39.23316, "longitude": -76.63663, "county": "BALTIMORE CITY", "countyid": 510, "badloc": false},
 {"recid": 259, "fname": "JOHN HARVEY", "lname": "FEEZER", "hasphoto": true, "photo": null, "hometown": " MARRIOTTSVILLE", "latitude": 39.3501, "longitude": -76.89942, "county": "CARROLL", "countyid": 13, "badloc": false},
 {"recid": 260, "fname": "EDWARD WILLIAM JR", "lname": "FELL", "hasphoto": true, "photo": null, "hometown": " BALTIMORE", "latitude": 39.23316, "longitude": -76.63663, "county": "BALTIMORE CITY", "countyid": 510, "badloc": false},
 {"recid": 261, "fname": "GUY TALMADGE JR", "lname": "FLETCHER", "hasphoto": true, "photo": null, "hometown": " BALTIMORE", "latitude": 39.23316, "longitude": -76.63663, "county": "BALTIMORE CITY", "countyid": 510, "badloc": false},
 {"recid": 262, "fname": "RALPH PRESTON JR", "lname": "FLINT", "hasphoto": true, "photo": null, "hometown": " HAGERSTOWN", "latitude": -77, "longitude": 39, "county": "WASHINGTON", "countyid": 43, "badloc": false},
 {"recid": 263, "fname": "ORLANDO", "lname": "FLONORY", "hasphoto": true, "photo": null, "hometown": " BALTIMORE", "latitude": 39.23316, "longitude": -76.63663, "county": "BALTIMORE CITY", "countyid": 510, "badloc": false},
 {"recid": 264, "fname": "CHARLES LAWRENCE", "lname": "FLOTT", "hasphoto": true, "photo": null, "hometown": " CHEVY CHASE", "latitude": 38.97122, "longitude": -77.07637, "county": "MONTGOMERY", "countyid": 31, "badloc": false},
 {"recid": 265, "fname": "LEWIS JOHN", "lname": "FOGLER", "hasphoto": true, "photo": null, "hometown": " GLEN BURNIE", "latitude": 39.16261, "longitude": -76.62469, "county": "ANNE ARUNDEL", "countyid": 3, "badloc": false},
 {"recid": 266, "fname": "NORMAN ARCHIE", "lname": "FOSSETT", "hasphoto": true, "photo": null, "hometown": " BALTIMORE", "latitude": 39.23316, "longitude": -76.63663, "county": "BALTIMORE CITY", "countyid": 510, "badloc": false},
 {"recid": 267, "fname": "WILLIAM HENRY", "lname": "FOSTER", "hasphoto": true, "photo": null, "hometown": " SEVERN", "latitude": 39.13705, "longitude": -76.6983, "county": "ANNE ARUNDEL", "countyid": 3, "badloc": false},
 {"recid": 268, "fname": "WILLIAM EDWARD", "lname": "FOWLER", "hasphoto": true, "photo": null, "hometown": " BALTIMORE", "latitude": 39.23316, "longitude": -76.63663, "county": "BALTIMORE CITY", "countyid": 510, "badloc": false},
 {"recid": 269, "fname": "THOMAS WALTER", "lname": "FOY", "hasphoto": true, "photo": null, "hometown": " BALTIMORE", "latitude": 39.23316, "longitude": -76.63663, "county": "BALTIMORE CITY", "countyid": 510, "badloc": false},
 {"recid": 270, "fname": "CLAYTON EUGENE", "lname": "FRALEY", "hasphoto": true, "photo": null, "hometown": " GAITHERSBURG", "latitude": 39.14344, "longitude": -77.20137, "county": "MONTGOMERY", "countyid": 31, "badloc": false},
 {"recid": 271, "fname": "PHILLIP STANLEY", "lname": "FRANCE", "hasphoto": true, "photo": null, "hometown": " BALTIMORE", "latitude": 39.23316, "longitude": -76.63663, "county": "BALTIMORE CITY", "countyid": 510, "badloc": false},
 {"recid": 272, "fname": "MARSHALL FRANKLIN", "lname": "FRENG", "hasphoto": true, "photo": null, "hometown": " ELKTON", "latitude": 39.61511, "longitude": -75.83355, "county": "CECIL", "countyid": 15, "badloc": false},
 {"recid": 273, "fname": "CLARENCE", "lname": "FULTON", "hasphoto": true, "photo": null, "hometown": " BALTIMORE", "latitude": 39.23316, "longitude": -76.63663, "county": "BALTIMORE CITY", "countyid": 510, "badloc": false},
 {"recid": 274, "fname": "WILLIAM ROBERT JR", "lname": "FURLONG", "hasphoto": true, "photo": null, "hometown": " BALTIMORE", "latitude": 39.23316, "longitude": -76.63663, "county": "BALTIMORE CITY", "countyid": 510, "badloc": false},
 {"recid": 275, "fname": "ROBERT MICHAEL", "lname": "GAFFIGAN", "hasphoto": true, "photo": null, "hometown": " SILVER SPRING", "latitude": 38.99067, "longitude": -77.02609, "county": "MONTGOMERY", "countyid": 31, "badloc": false},
 {"recid": 276, "fname": "EDWARD ALBERT", "lname": "GAFFNEY", "hasphoto": true, "photo": null, "hometown": " BALTIMORE", "latitude": 39.23316, "longitude": -76.63663, "county": "BALTIMORE CITY", "countyid": 510, "badloc": false},
 {"recid": 277, "fname": "ROBERT WAYNE", "lname": "GARDNER", "hasphoto": true, "photo": null, "hometown": " WHEATON", "latitude": 39.03983, "longitude": -77.05526, "county": "MONTGOMERY", "countyid": 31, "badloc": false},
 {"recid": 278, "fname": "KURT WILLIAM", "lname": "GAREISS", "hasphoto": true, "photo": null, "hometown": " ANNAPOLIS", "latitude": 38.97845, "longitude": -76.49218, "county": "ANNE ARUNDEL", "countyid": 3, "badloc": false},
 {"recid": 279, "fname": "RODGER LYNN", "lname": "GARLICK", "hasphoto": true, "photo": null, "hometown": "FRIENDSVILLE", "latitude": 39.66369, "longitude": -79.40532, "county": "GARRETT", "countyid": 23, "badloc": false},
 {"recid": 280, "fname": "MICHAEL ANTHONY", "lname": "GARRIS", "hasphoto": true, "photo": null, "hometown": " BALTIMORE", "latitude": 39.23316, "longitude": -76.63663, "county": "BALTIMORE CITY", "countyid": 510, "badloc": false},
 {"recid": 281, "fname": "FRED HORATIO II", "lname": "GATES", "hasphoto": true, "photo": null, "hometown": " CENTREVILLE", "latitude": 39.05483, "longitude": -76.07356, "county": "QUEEN ANNE", "countyid": 35, "badloc": false},
 {"recid": 282, "fname": "STEPHEN JONATHAN", "lname": "GEIST", "hasphoto": true, "photo": null, "hometown": " SILVER SPRING", "latitude": 38.99067, "longitude": -77.02609, "county": "MONTGOMERY", "countyid": 31, "badloc": false},
 {"recid": 283, "fname": "CHARLES EDWARD", "lname": "GENTRY", "hasphoto": true, "photo": null, "hometown": " CUMBERLAND", "latitude": -77, "longitude": 39, "county": "ALLEGANY", "countyid": 1, "badloc": false},
 {"recid": 284, "fname": "STEPHEN FREDERICK", "lname": "GEORGE", "hasphoto": true, "photo": null, "hometown": "HOLLIDAYSBURG PA", "latitude": -77, "longitude": 39, "county": "OTHER", "countyid": 999, "badloc": false},
 {"recid": 285, "fname": "JAMES FITZROY", "lname": "GHEE", "hasphoto": true, "photo": null, "hometown": " BALTIMORE", "latitude": 39.23316, "longitude": -76.63663, "county": "BALTIMORE CITY", "countyid": 510, "badloc": false},
 {"recid": 286, "fname": "MICHAEL E", "lname": "GIBIS", "hasphoto": true, "photo": null, "hometown": " GAMBRILLS", "latitude": 39.06705, "longitude": -76.66524, "county": "ANNE ARUNDEL", "countyid": 3, "badloc": false},
 {"recid": 287, "fname": "JOHN CHRISTOPHER", "lname": "GIBSON", "hasphoto": true, "photo": null, "hometown": " HYATTSVILLE", "latitude": 38.95594, "longitude": -76.94553, "county": "PRINCE GEORGES", "countyid": 33, "badloc": false},
 {"recid": 288, "fname": "FRANKLIN BRADLEY", "lname": "GILBERT", "hasphoto": true, "photo": null, "hometown": " HAVRE DE GRACE", "latitude": 39.54928, "longitude": -76.09162, "county": "HARFORD", "countyid": 25, "badloc": false},
 {"recid": 289, "fname": "GEORGE HARVEY", "lname": "GILLIAM", "hasphoto": true, "photo": null, "hometown": " BALTIMORE", "latitude": 39.23316, "longitude": -76.63663, "county": "BALTIMORE CITY", "countyid": 510, "badloc": false},
 {"recid": 290, "fname": "RONALD STUART", "lname": "GILLIAM", "hasphoto": true, "photo": null, "hometown": " HYATTSVILLE", "latitude": 38.95594, "longitude": -76.94553, "county": "PRINCE GEORGES", "countyid": 33, "badloc": false},
 {"recid": 291, "fname": "EDWARD RALPH JR", "lname": "GLENN", "hasphoto": true, "photo": null, "hometown": " HAGERSTOWN", "latitude": -77, "longitude": 39, "county": "WASHINGTON", "countyid": 43, "badloc": false},
 {"recid": 292, "fname": "RICHARD WALTER", "lname": "GODEN", "hasphoto": true, "photo": null, "hometown": " BALTIMORE", "latitude": 39.23316, "longitude": -76.63663, "county": "BALTIMORE CITY", "countyid": 510, "badloc": false},
 {"recid": 293, "fname": "EARL ARTHUR", "lname": "GODMAN", "hasphoto": true, "photo": null, "hometown": " BALTIMORE", "latitude": 39.23316, "longitude": -76.63663, "county": "BALTIMORE CITY", "countyid": 510, "badloc": false},
 {"recid": 294, "fname": "PAUL STEPHEN", "lname": "GOGGIN", "hasphoto": true, "photo": null, "hometown": "MORGANTOWN WV", "latitude": -77, "longitude": 39, "county": "OTHER", "countyid": 999, "badloc": false},
 {"recid": 295, "fname": "BENJAMIN NILES", "lname": "GOLDBERG", "hasphoto": true, "photo": null, "hometown": " BALTIMORE", "latitude": 39.23316, "longitude": -76.63663, "county": "BALTIMORE CITY", "countyid": 510, "badloc": false},
 {"recid": 296, "fname": "STEWART B", "lname": "GOLDBERG", "hasphoto": true, "photo": null, "hometown": " BALTIMORE", "latitude": 39.23316, "longitude": -76.63663, "county": "BALTIMORE CITY", "countyid": 510, "badloc": false},
 {"recid": 297, "fname": "EDWARD ENOCH III", "lname": "GOLDER", "hasphoto": true, "photo": null, "hometown": " BALTIMORE", "latitude": 39.23316, "longitude": -76.63663, "county": "BALTIMORE CITY", "countyid": 510, "badloc": false},
 {"recid": 298, "fname": "EDWARD LEON", "lname": "GOODMAN", "hasphoto": true, "photo": null, "hometown": " ANNAPOLIS", "latitude": 38.97845, "longitude": -76.49218, "county": "ANNE ARUNDEL", "countyid": 3, "badloc": false},
 {"recid": 299, "fname": "MICHAEL EDWARD", "lname": "GORDY", "hasphoto": true, "photo": null, "hometown": " SNOW HILL", "latitude": 39.08344, "longitude": -76.84914, "county": "WORCESTER", "countyid": 47, "badloc": false},
 {"recid": 300, "fname": "GEORGE MEDFORD JR", "lname": "GORRERA", "hasphoto": true, "photo": null, "hometown": " BALTIMORE", "latitude": 39.23316, "longitude": -76.63663, "county": "BALTIMORE CITY", "countyid": 510, "badloc": false},
 {"recid": 301, "fname": "ROLAND ALLEN", "lname": "GORSCHBOTH", "hasphoto": true, "photo": null, "hometown": " BALTIMORE", "latitude": 39.23316, "longitude": -76.63663, "county": "BALTIMORE CITY", "countyid": 510, "badloc": false},
 {"recid": 302, "fname": "JACK MARTIN", "lname": "GOSNELL", "hasphoto": true, "photo": null, "hometown": " BALTIMORE", "latitude": 39.23316, "longitude": -76.63663, "county": "BALTIMORE CITY", "countyid": 510, "badloc": false},
 {"recid": 303, "fname": "CALVIN KYRLE JR", "lname": "GRAESER", "hasphoto": true, "photo": null, "hometown": "WAYNE PA", "latitude": -77, "longitude": 39, "county": "OTHER", "countyid": 999, "badloc": false},
 {"recid": 304, "fname": "JAMES ALBERT", "lname": "GRAHAM", "hasphoto": true, "photo": null, "hometown": " FROSTBURG", "latitude": 39.65814, "longitude": -78.92836, "county": "ALLEGANY", "countyid": 1, "badloc": false},
 {"recid": 305, "fname": "AMBROSIO SALAZAR", "lname": "GRANDEA", "hasphoto": true, "photo": null, "hometown": " BALTIMORE", "latitude": 39.23316, "longitude": -76.63663, "county": "BALTIMORE CITY", "countyid": 510, "badloc": false},
 {"recid": 306, "fname": "JOHN WILLIAM", "lname": "GRASER", "hasphoto": true, "photo": null, "hometown": " FREDERICK", "latitude": 39.294, "longitude": -76.59636, "county": "FREDERICK", "countyid": 21, "badloc": false},
 {"recid": 307, "fname": "WILLIAM D", "lname": "GRAVES", "hasphoto": true, "photo": null, "hometown": " FORT HOLABIRD", "latitude": -77, "longitude": 39, "county": "BALTIMORE", "countyid": 510, "badloc": false},
 {"recid": 308, "fname": "CHARLES GONZIE", "lname": "GRAY", "hasphoto": true, "photo": null, "hometown": " BRANDYWINE", "latitude": 38.69678, "longitude": -76.84775, "county": "PRINCE GEORGES", "countyid": 33, "badloc": false},
 {"recid": 309, "fname": "FRANCIS GARFIELD", "lname": "GRAY", "hasphoto": true, "photo": null, "hometown": " LAUREL", "latitude": 39.09928, "longitude": -76.84831, "county": "PRINCE GEORGES", "countyid": 33, "badloc": false},
 {"recid": 310, "fname": "EDDIE", "lname": "GREEN", "hasphoto": true, "photo": null, "hometown": " BALTIMORE", "latitude": 39.23316, "longitude": -76.63663, "county": "BALTIMORE CITY", "countyid": 510, "badloc": false},
 {"recid": 311, "fname": "LARRY", "lname": "GREEN", "hasphoto": true, "photo": null, "hometown": " BALTIMORE", "latitude": 39.23316, "longitude": -76.63663, "county": "BALTIMORE CITY", "countyid": 510, "badloc": false},
 {"recid": 312, "fname": "THOMAS OWEN", "lname": "GREEN", "hasphoto": true, "photo": null, "hometown": " JESSUP", "latitude": 39.14927, "longitude": -76.77525, "county": "HOWARD", "countyid": 27, "badloc": false},
 {"recid": 313, "fname": "WALTER JR", "lname": "GREEN", "hasphoto": true, "photo": null, "hometown": " BALTIMORE", "latitude": 39.23316, "longitude": -76.63663, "county": "BALTIMORE CITY", "countyid": 510, "badloc": false},
 {"recid": 314, "fname": "JOHN ARTHUR", "lname": "GREENFIELD", "hasphoto": true, "photo": null, "hometown": " HUGHESVILLE", "latitude": 38.53262, "longitude": -76.78386, "county": "CHARLES", "countyid": 17, "badloc": false},
 {"recid": 315, "fname": "THOMAS JR", "lname": "GREGORY", "hasphoto": true, "photo": null, "hometown": " BALTIMORE", "latitude": 39.23316, "longitude": -76.63663, "county": "BALTIMORE CITY", "countyid": 510, "badloc": false},
 {"recid": 316, "fname": "MICHAEL ALLEN", "lname": "GRIGGS", "hasphoto": true, "photo": null, "hometown": " BOWIE", "latitude": 38.94278, "longitude": -76.73028, "county": "PRINCE GEORGES", "countyid": 33, "badloc": false},
 {"recid": 317, "fname": "ROBERT ROXBURGH", "lname": "GROOM", "hasphoto": true, "photo": null, "hometown": " ROCKVILLE", "latitude": -77, "longitude": 39, "county": "MONTGOMERY", "countyid": 31, "badloc": false},
 {"recid": 318, "fname": "MURIEL STANLEY", "lname": "GROOMES", "hasphoto": true, "photo": null, "hometown": " HAMPSTEAD", "latitude": 39.60483, "longitude": -76.84998, "county": "CARROLL", "countyid": 13, "badloc": false},
 {"recid": 319, "fname": "KENNETH EDWARD", "lname": "GROVE", "hasphoto": true, "photo": null, "hometown": " PARKTON", "latitude": 39.64094, "longitude": -76.65914, "county": "BALTIMORE", "countyid": 510, "badloc": false},
 {"recid": 320, "fname": "DONALD MAURICE", "lname": "GUTRICK", "hasphoto": true, "photo": null, "hometown": " NANJEMOY", "latitude": 38.45484, "longitude": -77.21692, "county": "CHARLES", "countyid": 17, "badloc": false},
 {"recid": 321, "fname": "TATE TALMAGE III", "lname": "HACKNEY", "hasphoto": true, "photo": null, "hometown": " HILLSIDE", "latitude": 39.58955, "longitude": -76.95665, "county": "PRINCE GEORGES", "countyid": 33, "badloc": false},
 {"recid": 322, "fname": "JAMES BUCKNER", "lname": "HALL", "hasphoto": true, "photo": null, "hometown": " ROCKVILLE", "latitude": -77, "longitude": 39, "county": "MONTGOMERY", "countyid": 31, "badloc": false},
 {"recid": 323, "fname": "JOHN STERLING", "lname": "HALL", "hasphoto": true, "photo": null, "hometown": " BALTIMORE", "latitude": 39.23316, "longitude": -76.63663, "county": "BALTIMORE CITY", "countyid": 510, "badloc": false},
 {"recid": 324, "fname": "DENNIS JOSEPH", "lname": "HAMET", "hasphoto": true, "photo": null, "hometown": " BALTIMORE", "latitude": 39.23316, "longitude": -76.63663, "county": "BALTIMORE CITY", "countyid": 510, "badloc": false},
 {"recid": 325, "fname": "STEVE WESTLEL", "lname": "HARRIS", "hasphoto": true, "photo": null, "hometown": " ROCKVILLE", "latitude": -77, "longitude": 39, "county": "MONTGOMERY", "countyid": 31, "badloc": false},
 {"recid": 326, "fname": "PAUL LEROY", "lname": "HARRISON", "hasphoto": true, "photo": null, "hometown": " HYATTSVILLE", "latitude": 38.95594, "longitude": -76.94553, "county": "PRINCE GEORGES", "countyid": 33, "badloc": false},
 {"recid": 327, "fname": "DAVID MELDRUM", "lname": "HART", "hasphoto": true, "photo": null, "hometown": " WHEATON", "latitude": 39.03983, "longitude": -77.05526, "county": "MONTGOMERY", "countyid": 31, "badloc": false},
 {"recid": 328, "fname": "EUGENE WINFIELD", "lname": "HARTMAN", "hasphoto": true, "photo": null, "hometown": " SILVER SPRING", "latitude": 38.99067, "longitude": -77.02609, "county": "MONTGOMERY", "countyid": 31, "badloc": false},
 {"recid": 329, "fname": "ROBERT WILLARD", "lname": "HARTSOCK", "hasphoto": true, "photo": null, "hometown": " CUMBERLAND", "latitude": -77, "longitude": 39, "county": "ALLEGANY", "countyid": 1, "badloc": false},
 {"recid": 330, "fname": "CLAYBURN MC GEE", "lname": "HATCHER", "hasphoto": true, "photo": null, "hometown": " BALTIMORE", "latitude": 39.23316, "longitude": -76.63663, "county": "BALTIMORE CITY", "countyid": 510, "badloc": false},
 {"recid": 331, "fname": "STEPHEN LAWRENCE", "lname": "HAVAS", "hasphoto": true, "photo": null, "hometown": " CAMP SPRINGS", "latitude": 38.804, "longitude": -76.90664, "county": "PRINCE GEORGES", "countyid": 33, "badloc": false},
 {"recid": 332, "fname": "LEROY ANTHONY", "lname": "HAYES", "hasphoto": true, "photo": null, "hometown": " BALTIMORE", "latitude": 39.23316, "longitude": -76.63663, "county": "BALTIMORE CITY", "countyid": 510, "badloc": false},
 {"recid": 333, "fname": "RICHARD EDWARD", "lname": "HAYES", "hasphoto": true, "photo": null, "hometown": " BRYANS ROAD", "latitude": 38.62706, "longitude": -77.07303, "county": "CHARLES", "countyid": 17, "badloc": false},
 {"recid": 334, "fname": "LEWIS MORRISON", "lname": "HAYWARD", "hasphoto": true, "photo": null, "hometown": "POCOMOKE", "latitude": 38.07568, "longitude": -75.56798, "county": "SOMERSET", "countyid": 39, "badloc": false},
 {"recid": 335, "fname": "JAMES BENEDICT", "lname": "HEARD", "hasphoto": true, "photo": null, "hometown": " HOLLYWOOD", "latitude": 39.07511, "longitude": -76.5858, "county": "SAINT MARYS", "countyid": 37, "badloc": false},
 {"recid": 336, "fname": "HOWARD BOYD", "lname": "HENRY", "hasphoto": true, "photo": null, "hometown": " BALTIMORE", "latitude": 39.23316, "longitude": -76.63663, "county": "BALTIMORE CITY", "countyid": 510, "badloc": false},
 {"recid": 337, "fname": "ALVAH WORRELL JR", "lname": "HENSON", "hasphoto": true, "photo": null, "hometown": " LAUREL", "latitude": 39.09928, "longitude": -76.84831, "county": "PRINCE GEORGES", "countyid": 33, "badloc": false},
 {"recid": 338, "fname": "ROBERT LANCE", "lname": "HETTINGER", "hasphoto": true, "photo": null, "hometown": " BALTIMORE", "latitude": 39.23316, "longitude": -76.63663, "county": "BALTIMORE CITY", "countyid": 510, "badloc": false},
 {"recid": 339, "fname": "NORMAN EDWARD JR", "lname": "HICKS", "hasphoto": true, "photo": null, "hometown": " BALTIMORE", "latitude": 39.23316, "longitude": -76.63663, "county": "BALTIMORE CITY", "countyid": 510, "badloc": false},
 {"recid": 340, "fname": "SILAS LUCAS JR", "lname": "HICKS", "hasphoto": true, "photo": null, "hometown": " HYATTSVILLE", "latitude": 38.95594, "longitude": -76.94553, "county": "PRINCE GEORGES", "countyid": 33, "badloc": false},
 {"recid": 341, "fname": "WILLIAM HANDSOME", "lname": "HOUSE", "hasphoto": true, "photo": null, "hometown": " RIDGELY", "latitude": 38.94789, "longitude": -75.88438, "county": "CAROLINE", "countyid": 11, "badloc": false},
 {"recid": 342, "fname": "WILLIS FRANCIS", "lname": "HOUSE", "hasphoto": true, "photo": null, "hometown": " GLEN BURNIE", "latitude": 39.16261, "longitude": -76.62469, "county": "ANNE ARUNDEL", "countyid": 3, "badloc": false},
 {"recid": 343, "fname": "THOMAS CARR JEFFER", "lname": "HUBARD", "hasphoto": true, "photo": null, "hometown": " DARLINGTON", "latitude": 39.63927, "longitude": -76.20273, "county": "HARFORD", "countyid": 25, "badloc": false},
 {"recid": 344, "fname": "ERNEST JOSEPH", "lname": "HUGHES", "hasphoto": true, "photo": null, "hometown": " BALTIMORE", "latitude": 39.23316, "longitude": -76.63663, "county": "BALTIMORE CITY", "countyid": 510, "badloc": false},
 {"recid": 345, "fname": "MARION BENNETT JR", "lname": "HUGHES", "hasphoto": true, "photo": null, "hometown": " SALISBURY", "latitude": 38.40481, "longitude": -75.56508, "county": "WICOMICO", "countyid": 45, "badloc": false},
 {"recid": 346, "fname": "WALTER VINCENT", "lname": "HULINGS", "hasphoto": true, "photo": null, "hometown": " BALTIMORE", "latitude": 39.23316, "longitude": -76.63663, "county": "BALTIMORE CITY", "countyid": 510, "badloc": false},
 {"recid": 347, "fname": "IRA HENRY", "lname": "HULLIHEN", "hasphoto": true, "photo": null, "hometown": " BALTIMORE", "latitude": 39.23316, "longitude": -76.63663, "county": "BALTIMORE CITY", "countyid": 510, "badloc": false},
 {"recid": 348, "fname": "RICHARD DAVID", "lname": "HUMPHREY", "hasphoto": true, "photo": null, "hometown": " EAST RIVERDALE", "latitude": 38.96206, "longitude": -76.92192, "county": "PRINCE GEORGES", "countyid": 33, "badloc": false},
 {"recid": 349, "fname": "STEPHEN JOSEPH", "lname": "HUSKEY", "hasphoto": true, "photo": null, "hometown": " LANDOVER", "latitude": 38.934, "longitude": -76.89664, "county": "PRINCE GEORGES", "countyid": 33, "badloc": false},
 {"recid": 350, "fname": "KURT CHRISTOPHER", "lname": "HUSSMANN", "hasphoto": true, "photo": null, "hometown": " HYATTSVILLE", "latitude": 38.95594, "longitude": -76.94553, "county": "PRINCE GEORGES", "countyid": 33, "badloc": false},
 {"recid": 351, "fname": "JOHN FRANKLIN", "lname": "HUTZELL", "hasphoto": true, "photo": null, "hometown": " WILLIAMSPORT", "latitude": 39.60065, "longitude": -77.82055, "county": "WASHINGTON", "countyid": 43, "badloc": false},
 {"recid": 352, "fname": "HAROLD EUGENE JR", "lname": "IMLER", "hasphoto": true, "photo": null, "hometown": " BALTIMORE", "latitude": 39.23316, "longitude": -76.63663, "county": "BALTIMORE CITY", "countyid": 510, "badloc": false},
 {"recid": 353, "fname": "TULLIO PATRICK JR", "lname": "IODICE", "hasphoto": true, "photo": null, "hometown": " PARKVILLE", "latitude": 39.37733, "longitude": -76.53969, "county": "BALTIMORE", "countyid": 510, "badloc": false},
 {"recid": 354, "fname": "PHILLIP EARL", "lname": "IRELAND", "hasphoto": true, "photo": null, "hometown": " TRAPPE", "latitude": 38.65845, "longitude": -76.058, "county": "TALBOT", "countyid": 41, "badloc": false},
 {"recid": 355, "fname": "HARRY RICHARD", "lname": "ITALIANO", "hasphoto": true, "photo": null, "hometown": " SUITLAND", "latitude": 38.84872, "longitude": -76.92386, "county": "PRINCE GEORGES", "countyid": 33, "badloc": false},
 {"recid": 356, "fname": "ROBERT ANTHONY", "lname": "ITZOE", "hasphoto": true, "photo": null, "hometown": " BALTIMORE", "latitude": 39.23316, "longitude": -76.63663, "county": "BALTIMORE CITY", "countyid": 510, "badloc": false},
 {"recid": 357, "fname": "ANGUS N", "lname": "JACKSON", "hasphoto": true, "photo": null, "hometown": " BALTIMORE", "latitude": 39.23316, "longitude": -76.63663, "county": "BALTIMORE CITY", "countyid": 510, "badloc": false},
 {"recid": 358, "fname": "CARROLL THOMAS", "lname": "JACKSON", "hasphoto": true, "photo": null, "hometown": " PRINCESS ANNE", "latitude": -77, "longitude": 39, "county": "SOMERSET", "countyid": 39, "badloc": false},
 {"recid": 359, "fname": "CHARLES ANTHONY", "lname": "JAMACK", "hasphoto": true, "photo": null, "hometown": " EDGEWOOD", "latitude": 39.45955, "longitude": -77.47415, "county": "HARFORD", "countyid": 25, "badloc": true},
 {"recid": 360, "fname": "FRANKLIN THEODORE", "lname": "JAMES", "hasphoto": true, "photo": null, "hometown": " BALTIMORE", "latitude": 39.23316, "longitude": -76.63663, "county": "BALTIMORE CITY", "countyid": 510, "badloc": false},
 {"recid": 361, "fname": "PERRY DEAN", "lname": "JAMES", "hasphoto": true, "photo": null, "hometown": " BALTIMORE", "latitude": 39.23316, "longitude": -76.63663, "county": "BALTIMORE CITY", "countyid": 510, "badloc": false},
 {"recid": 362, "fname": "ROLAND IRA", "lname": "JEFFERSON", "hasphoto": true, "photo": null, "hometown": " BALTIMORE", "latitude": 39.23316, "longitude": -76.63663, "county": "BALTIMORE CITY", "countyid": 510, "badloc": false},
 {"recid": 363, "fname": "CECIL RAYMOND", "lname": "JENKINS", "hasphoto": true, "photo": null, "hometown": " TAYLORS ISLAND", "latitude": 38.46901, "longitude": -76.29911, "county": "DORCHESTER", "countyid": 19, "badloc": false},
 {"recid": 364, "fname": "PHILIP PAUL", "lname": "JENKINS", "hasphoto": true, "photo": null, "hometown": " BALTIMORE", "latitude": 39.23316, "longitude": -76.63663, "county": "BALTIMORE CITY", "countyid": 510, "badloc": false},
 {"recid": 365, "fname": "DONALD MELVIN", "lname": "JENNINGS", "hasphoto": true, "photo": null, "hometown": " BALTIMORE", "latitude": 39.23316, "longitude": -76.63663, "county": "BALTIMORE CITY", "countyid": 510, "badloc": false},
 {"recid": 366, "fname": "JAMES LEWIS", "lname": "JENNINGS", "hasphoto": true, "photo": null, "hometown": " BALTIMORE", "latitude": 39.23316, "longitude": -76.63663, "county": "BALTIMORE CITY", "countyid": 510, "badloc": false},
 {"recid": 367, "fname": "FRANK HOWARD", "lname": "JOHNS", "hasphoto": true, "photo": null, "hometown": " BALTIMORE", "latitude": 39.23316, "longitude": -76.63663, "county": "BALTIMORE CITY", "countyid": 510, "badloc": false},
 {"recid": 368, "fname": "VERNON ZIGMAN", "lname": "JOHNS", "hasphoto": true, "photo": null, "hometown": " BALTIMORE", "latitude": 39.23316, "longitude": -76.63663, "county": "BALTIMORE CITY", "countyid": 510, "badloc": false},
 {"recid": 369, "fname": "DAVID RUDOLPH", "lname": "JOHNSON", "hasphoto": true, "photo": null, "hometown": " BROOKLYN PARK", "latitude": 39.22844, "longitude": -76.61636, "county": "ANNE ARUNDEL", "countyid": 3, "badloc": false},
 {"recid": 370, "fname": "ENOCH", "lname": "JOHNSON", "hasphoto": true, "photo": null, "hometown": " BALTIMORE", "latitude": 39.23316, "longitude": -76.63663, "county": "BALTIMORE CITY", "countyid": 510, "badloc": false},
 {"recid": 371, "fname": "EUGENE MELVIN JR", "lname": "JOHNSON", "hasphoto": true, "photo": null, "hometown": " BALTIMORE", "latitude": 39.23316, "longitude": -76.63663, "county": "BALTIMORE CITY", "countyid": 510, "badloc": false},
 {"recid": 372, "fname": "JOHN HENRY JR", "lname": "JOHNSON", "hasphoto": true, "photo": null, "hometown": " BALTIMORE", "latitude": 39.23316, "longitude": -76.63663, "county": "BALTIMORE CITY", "countyid": 510, "badloc": false},
 {"recid": 373, "fname": "JAMES", "lname": "LOSPINUSO", "hasphoto": true, "photo": null, "hometown": " LAUREL", "latitude": 39.09928, "longitude": -76.84831, "county": "PRINCE GEORGES", "countyid": 33, "badloc": false},
 {"recid": 374, "fname": "JAMES EDWARD", "lname": "LOVE", "hasphoto": true, "photo": null, "hometown": " SILVER SPRING", "latitude": 38.99067, "longitude": -77.02609, "county": "MONTGOMERY", "countyid": 31, "badloc": false},
 {"recid": 375, "fname": "KENNETH HARLEN", "lname": "LOVE", "hasphoto": true, "photo": null, "hometown": " BALTIMORE", "latitude": 39.23316, "longitude": -76.63663, "county": "BALTIMORE CITY", "countyid": 510, "badloc": false},
 {"recid": 376, "fname": "RICHARD HOMER", "lname": "LOWERY", "hasphoto": true, "photo": null, "hometown": " ELLERSLIE", "latitude": 39.72064, "longitude": -78.77419, "county": "ALLEGANY", "countyid": 1, "badloc": false},
 {"recid": 377, "fname": "ALLEN LEE", "lname": "LUCAS", "hasphoto": true, "photo": null, "hometown": " PASADENA", "latitude": 39.10733, "longitude": -76.57108, "county": "ANNE ARUNDEL", "countyid": 3, "badloc": false},
 {"recid": 378, "fname": "WILLIAM WAYNE", "lname": "LUMSDEN", "hasphoto": true, "photo": null, "hometown": " COMPTON", "latitude": 38.27513, "longitude": -76.69302, "county": "SAINT MARYS", "countyid": 37, "badloc": false},
 {"recid": 379, "fname": "WAYNE THOMAS", "lname": "LUNDELL", "hasphoto": true, "photo": null, "hometown": " SILVER SPRING", "latitude": 38.99067, "longitude": -77.02609, "county": "MONTGOMERY", "countyid": 31, "badloc": false},
 {"recid": 380, "fname": "WILMER THOMAS", "lname": "LUTZ", "hasphoto": true, "photo": null, "hometown": " BALTIMORE", "latitude": 39.23316, "longitude": -76.63663, "county": "BALTIMORE CITY", "countyid": 510, "badloc": false},
 {"recid": 381, "fname": "BALFOUR OLIVER JR", "lname": "LYTTON", "hasphoto": true, "photo": null, "hometown": " ROCKVILLE", "latitude": -77, "longitude": 39, "county": "MONTGOMERY", "countyid": 31, "badloc": false},
 {"recid": 382, "fname": "NEIL KIRK", "lname": "MAC IVER", "hasphoto": true, "photo": null, "hometown": " TAKOMA PARK", "latitude": 38.97789, "longitude": -77.00748, "county": "MONTGOMERY", "countyid": 31, "badloc": false},
 {"recid": 383, "fname": "DONALD C JR", "lname": "MAC LAUGHLIN", "hasphoto": true, "photo": null, "hometown": " BALTIMORE", "latitude": 39.23316, "longitude": -76.63663, "county": "BALTIMORE CITY", "countyid": 510, "badloc": false},
 {"recid": 384, "fname": "JAMES S JR", "lname": "MAC VICKAR", "hasphoto": true, "photo": null, "hometown": " ANNAPOLIS", "latitude": 38.97845, "longitude": -76.49218, "county": "ANNE ARUNDEL", "countyid": 3, "badloc": false},
 {"recid": 385, "fname": "ARTHUR WEBSTER III", "lname": "MACHEN", "hasphoto": true, "photo": null, "hometown": " RUXTON", "latitude": 39.40011, "longitude": -76.64469, "county": "BALTIMORE", "countyid": 510, "badloc": false},
 {"recid": 386, "fname": "EARL", "lname": "MACK", "hasphoto": true, "photo": null, "hometown": " CAMBRIDGE", "latitude": 39.64955, "longitude": -77.01915, "county": "DORCHESTER", "countyid": 19, "badloc": false},
 {"recid": 387, "fname": "RAYMOND LOUIS", "lname": "MACKLIN", "hasphoto": true, "photo": null, "hometown": " BALTIMORE", "latitude": 39.23316, "longitude": -76.63663, "county": "BALTIMORE CITY", "countyid": 510, "badloc": false},
 {"recid": 388, "fname": "JAMES ROBERT", "lname": "MACY", "hasphoto": true, "photo": null, "hometown": " BALTIMORE", "latitude": 39.23316, "longitude": -76.63663, "county": "BALTIMORE CITY", "countyid": 510, "badloc": false},
 {"recid": 389, "fname": "FREDERICK JOHN", "lname": "MAGSAMEN", "hasphoto": true, "photo": null, "hometown": " WESTMINSTER", "latitude": -77, "longitude": 39, "county": "CARROLL", "countyid": 13, "badloc": false},
 {"recid": 390, "fname": "FRANK RONALD", "lname": "MANELLO", "hasphoto": true, "photo": null, "hometown": " BALTIMORE", "latitude": 39.23316, "longitude": -76.63663, "county": "BALTIMORE CITY", "countyid": 510, "badloc": false},
 {"recid": 391, "fname": "THEODORE EDWARD JR", "lname": "MANGUM", "hasphoto": true, "photo": null, "hometown": " SILVER SPRING", "latitude": 38.99067, "longitude": -77.02609, "county": "MONTGOMERY", "countyid": 31, "badloc": false},
 {"recid": 392, "fname": "AUGUST GORDIAN JR", "lname": "MANNION", "hasphoto": true, "photo": null, "hometown": " BALTIMORE", "latitude": 39.23316, "longitude": -76.63663, "county": "BALTIMORE CITY", "countyid": 510, "badloc": false},
 {"recid": 393, "fname": "FREDERICK LUTHER", "lname": "MARCH", "hasphoto": true, "photo": null, "hometown": " BALTIMORE", "latitude": 39.23316, "longitude": -76.63663, "county": "BALTIMORE CITY", "countyid": 510, "badloc": false},
 {"recid": 394, "fname": "LEE ERNEST JR", "lname": "MARSH", "hasphoto": true, "photo": null, "hometown": " BALTIMORE", "latitude": 39.23316, "longitude": -76.63663, "county": "BALTIMORE CITY", "countyid": 510, "badloc": false},
 {"recid": 395, "fname": "HAROLD DOUGLAS", "lname": "MARTIN", "hasphoto": true, "photo": null, "hometown": " SILVER SPRING", "latitude": 38.99067, "longitude": -77.02609, "county": "MONTGOMERY", "countyid": 31, "badloc": false},
 {"recid": 396, "fname": "ROBERT HARRISON JR", "lname": "MARTIN", "hasphoto": true, "photo": null, "hometown": " CUMBERLAND", "latitude": -77, "longitude": 39, "county": "ALLEGANY", "countyid": 1, "badloc": false},
 {"recid": 397, "fname": "CHARLES GILBERT", "lname": "MASON", "hasphoto": true, "photo": null, "hometown": " CHEVERLY", "latitude": 38.92817, "longitude": -76.91581, "county": "PRINCE GEORGES", "countyid": 33, "badloc": false},
 {"recid": 398, "fname": "RAYMOND LEROY", "lname": "MASON", "hasphoto": true, "photo": null, "hometown": " BALTIMORE", "latitude": 39.23316, "longitude": -76.63663, "county": "BALTIMORE CITY", "countyid": 510, "badloc": false},
 {"recid": 399, "fname": "ROBERT DAVID", "lname": "MASON", "hasphoto": true, "photo": null, "hometown": " ROCKVILLE", "latitude": -77, "longitude": 39, "county": "MONTGOMERY", "countyid": 31, "badloc": false},
 {"recid": 400, "fname": "GEORGE EDGAR", "lname": "MASSIE", "hasphoto": true, "photo": null, "hometown": " CLEAR SPRING", "latitude": 39.65621, "longitude": -77.93166, "county": "WASHINGTON", "countyid": 43, "badloc": false},
 {"recid": 401, "fname": "DONALD JAMES JR", "lname": "MATTARO", "hasphoto": true, "photo": null, "hometown": " LANGLEY PARK", "latitude": 38.98872, "longitude": -76.98136, "county": "PRINCE GEORGES", "countyid": 33, "badloc": false},
 {"recid": 402, "fname": "GEORGE MICHAEL", "lname": "MATTINGLY", "hasphoto": true, "photo": null, "hometown": " OXON HILL", "latitude": 38.80345, "longitude": -76.9897, "county": "PRINCE GEORGES", "countyid": 33, "badloc": false},
 {"recid": 403, "fname": "HARRY ALBERT JR", "lname": "MATTINGLY", "hasphoto": true, "photo": null, "hometown": " ESSEX", "latitude": 39.30927, "longitude": -76.47496, "county": "BALTIMORE", "countyid": 510, "badloc": false},
 {"recid": 404, "fname": "DAVID MURRAY", "lname": "MAY", "hasphoto": true, "photo": null, "hometown": " HYATTSVILLE", "latitude": 38.95594, "longitude": -76.94553, "county": "PRINCE GEORGES", "countyid": 33, "badloc": false},
 {"recid": 405, "fname": "ROBERT WILLIAM", "lname": "MAZZA", "hasphoto": true, "photo": null, "hometown": " BALTIMORE", "latitude": 39.23316, "longitude": -76.63663, "county": "BALTIMORE CITY", "countyid": 510, "badloc": false},
 {"recid": 406, "fname": "DONALD C JR", "lname": "MC ALLISTER", "hasphoto": true, "photo": null, "hometown": " ELKTON", "latitude": 39.61511, "longitude": -75.83355, "county": "CECIL", "countyid": 15, "badloc": false},
 {"recid": 407, "fname": "JEROME DANNIE", "lname": "MC ARTHUR", "hasphoto": true, "photo": null, "hometown": " BALTIMORE", "latitude": 39.23316, "longitude": -76.63663, "county": "BALTIMORE CITY", "countyid": 510, "badloc": false},
 {"recid": 408, "fname": "PHILIP JAMES", "lname": "MC CARTHY", "hasphoto": true, "photo": null, "hometown": " BALTIMORE", "latitude": 39.23316, "longitude": -76.63663, "county": "BALTIMORE CITY", "countyid": 510, "badloc": false},
 {"recid": 409, "fname": "THOMAS WELLER", "lname": "MC CARTHY", "hasphoto": true, "photo": null, "hometown": " CHEVY CHASE", "latitude": 38.97122, "longitude": -77.07637, "county": "MONTGOMERY", "countyid": 31, "badloc": false},
 {"recid": 410, "fname": "DONALD LEE", "lname": "MC CLANAHAN", "hasphoto": true, "photo": null, "hometown": " POINT PLEASANT", "latitude": 39.17872, "longitude": -76.58747, "county": "ANNE ARUNDEL", "countyid": 3, "badloc": false},
 {"recid": 411, "fname": "CHARLES THOMAS", "lname": "MC CORKLE", "hasphoto": true, "photo": null, "hometown": " BRADSHAW", "latitude": 39.42316, "longitude": -76.38107, "county": "BALTIMORE", "countyid": 510, "badloc": false},
 {"recid": 412, "fname": "STANLEY EUGENE", "lname": "MC CREARY", "hasphoto": true, "photo": null, "hometown": " HAVRE DE GRACE", "latitude": 39.54928, "longitude": -76.09162, "county": "HARFORD", "countyid": 25, "badloc": false},
 {"recid": 413, "fname": "JOHNNY ANDERSON", "lname": "MC DANIELS", "hasphoto": true, "photo": null, "hometown": " BALTIMORE", "latitude": 39.23316, "longitude": -76.63663, "county": "BALTIMORE CITY", "countyid": 510, "badloc": false},
 {"recid": 414, "fname": "JOSEPH F III", "lname": "MC DERMOTT", "hasphoto": true, "photo": null, "hometown": " COLLEGE PARK", "latitude": 39.00872, "longitude": -76.95109, "county": "PRINCE GEORGES", "countyid": 33, "badloc": false},
 {"recid": 415, "fname": "ROY LAWRENCE", "lname": "MC DONALD", "hasphoto": true, "photo": null, "hometown": " CUMBERLAND", "latitude": -77, "longitude": 39, "county": "ALLEGANY", "countyid": 1, "badloc": false},
 {"recid": 416, "fname": "JOHN ARTHUR", "lname": "MC GINN", "hasphoto": true, "photo": null, "hometown": " SILVER SPRING", "latitude": 38.99067, "longitude": -77.02609, "county": "MONTGOMERY", "countyid": 31, "badloc": false},
 {"recid": 417, "fname": "JAMES GERALD", "lname": "MC GOVERN", "hasphoto": true, "photo": null, "hometown": " RIVERDALE", "latitude": 39.09928, "longitude": -76.5358, "county": "PRINCE GEORGES", "countyid": 33, "badloc": false},
 {"recid": 418, "fname": "WILLIAM LEWIS", "lname": "MC GOWAN", "hasphoto": true, "photo": null, "hometown": " SILVER SPRING", "latitude": 38.99067, "longitude": -77.02609, "county": "MONTGOMERY", "countyid": 31, "badloc": false},
 {"recid": 419, "fname": "HOMER CLEO JR", "lname": "MC INTYRE", "hasphoto": true, "photo": null, "hometown": "WASHINGTON DC", "latitude": -77, "longitude": 39, "county": "OTHER", "countyid": 999, "badloc": false},
 {"recid": 420, "fname": "ALEX LEON", "lname": "MC LEAN", "hasphoto": true, "photo": null, "hometown": " BALTIMORE", "latitude": 39.23316, "longitude": -76.63663, "county": "BALTIMORE CITY", "countyid": 510, "badloc": false},
 {"recid": 421, "fname": "DON THOMAS", "lname": "O SHELL", "hasphoto": true, "photo": null, "hometown": " BALTIMORE", "latitude": 39.23316, "longitude": -76.63663, "county": "BALTIMORE CITY", "countyid": 510, "badloc": false},
 {"recid": 422, "fname": "WILLIAM LYNN", "lname": "OAKLEY", "hasphoto": true, "photo": null, "hometown": " BALTIMORE", "latitude": 39.23316, "longitude": -76.63663, "county": "BALTIMORE CITY", "countyid": 510, "badloc": false},
 {"recid": 423, "fname": "RONALD", "lname": "OGLESBY", "hasphoto": true, "photo": null, "hometown": " BALTIMORE", "latitude": 39.23316, "longitude": -76.63663, "county": "BALTIMORE CITY", "countyid": 510, "badloc": false},
 {"recid": 424, "fname": "JAMES BRUCE", "lname": "OKANE", "hasphoto": true, "photo": null, "hometown": " LAUREL", "latitude": 39.09928, "longitude": -76.84831, "county": "PRINCE GEORGES", "countyid": 33, "badloc": false},
 {"recid": 425, "fname": "ERNEST ARTHUR", "lname": "OLDS", "hasphoto": true, "photo": null, "hometown": " SALISBURY", "latitude": 38.40481, "longitude": -75.56508, "county": "WICOMICO", "countyid": 45, "badloc": false},
 {"recid": 426, "fname": "TONY SYLVESTER", "lname": "OLIVER", "hasphoto": true, "photo": null, "hometown": " BALTIMORE", "latitude": 39.23316, "longitude": -76.63663, "county": "BALTIMORE CITY", "countyid": 510, "badloc": false},
 {"recid": 427, "fname": "JAMES TIMOTHY", "lname": "ONEILL", "hasphoto": true, "photo": null, "hometown": " BALTIMORE", "latitude": 39.23316, "longitude": -76.63663, "county": "BALTIMORE CITY", "countyid": 510, "badloc": false},
 {"recid": 428, "fname": "MICHAEL WILLIAM", "lname": "ORASH", "hasphoto": true, "photo": null, "hometown": " BALTIMORE", "latitude": 39.23316, "longitude": -76.63663, "county": "BALTIMORE CITY", "countyid": 510, "badloc": false},
 {"recid": 429, "fname": "KYLIS THEROD", "lname": "PAYNE", "hasphoto": true, "photo": null, "hometown": " BALTIMORE", "latitude": 39.23316, "longitude": -76.63663, "county": "BALTIMORE CITY", "countyid": 510, "badloc": false},
 {"recid": 430, "fname": "LOUIS SR", "lname": "PAYNE", "hasphoto": true, "photo": null, "hometown": " MOUNT RANIER", "latitude": -77, "longitude": 39, "county": "PRINCE GEORGES", "countyid": 33, "badloc": false},
 {"recid": 431, "fname": "WALTER FRANKLIN", "lname": "PAYNE", "hasphoto": true, "photo": null, "hometown": " BALTIMORE", "latitude": 39.23316, "longitude": -76.63663, "county": "BALTIMORE CITY", "countyid": 510, "badloc": false},
 {"recid": 432, "fname": "NORMAN JAMES", "lname": "PEARSON", "hasphoto": true, "photo": null, "hometown": " HERRON", "latitude": -77, "longitude": 39, "county": "WICOMICO", "countyid": 45, "badloc": false},
 {"recid": 433, "fname": "RUDOLPH", "lname": "PEARSON", "hasphoto": true, "photo": null, "hometown": " BALTIMORE", "latitude": 39.23316, "longitude": -76.63663, "county": "BALTIMORE CITY", "countyid": 510, "badloc": false},
 {"recid": 434, "fname": "DOUGLASS FRANKLIN", "lname": "PEAY", "hasphoto": true, "photo": null, "hometown": " BALTIMORE", "latitude": 39.23316, "longitude": -76.63663, "county": "BALTIMORE CITY", "countyid": 510, "badloc": false},
 {"recid": 435, "fname": "DAVID BURTON", "lname": "PEGG", "hasphoto": true, "photo": null, "hometown": " ELLICOTT CITY", "latitude": -77, "longitude": 39, "county": "HOWARD", "countyid": 27, "badloc": false},
 {"recid": 436, "fname": "JOHN FRANCIS", "lname": "PENDER", "hasphoto": true, "photo": null, "hometown": " DISTRICT HEIGHTS", "latitude": 38.85761, "longitude": -76.88942, "county": "PRINCE GEORGES", "countyid": 33, "badloc": false},
 {"recid": 437, "fname": "PAUL PATRICK", "lname": "PENNINGTON", "hasphoto": true, "photo": null, "hometown": " BALTIMORE", "latitude": 39.23316, "longitude": -76.63663, "county": "BALTIMORE CITY", "countyid": 510, "badloc": false},
 {"recid": 438, "fname": "DANIEL L", "lname": "PENSON", "hasphoto": true, "photo": null, "hometown": " BALTIMORE", "latitude": 39.23316, "longitude": -76.63663, "county": "BALTIMORE CITY", "countyid": 510, "badloc": false},
 {"recid": 439, "fname": "CALVIN MOORE", "lname": "PERKINS", "hasphoto": true, "photo": null, "hometown": " BALTIMORE", "latitude": 39.23316, "longitude": -76.63663, "county": "BALTIMORE CITY", "countyid": 510, "badloc": false},
 {"recid": 440, "fname": "WILLIAM ARTHUR JR", "lname": "PERKINS", "hasphoto": true, "photo": null, "hometown": " BALTIMORE", "latitude": 39.23316, "longitude": -76.63663, "county": "BALTIMORE CITY", "countyid": 510, "badloc": false},
 {"recid": 441, "fname": "NORMAND PAUL", "lname": "PERRON", "hasphoto": true, "photo": null, "hometown": " GLEN BURNIE", "latitude": 39.16261, "longitude": -76.62469, "county": "ANNE ARUNDEL", "countyid": 3, "badloc": false},
 {"recid": 442, "fname": "BENJAMIN F JR", "lname": "PHILLIPS", "hasphoto": true, "photo": null, "hometown": " TILGHMAN", "latitude": 38.71706, "longitude": -76.33439, "county": "TALBOT", "countyid": 41, "badloc": false},
 {"recid": 443, "fname": "FREDERICK ALLEN", "lname": "PHOEBUS", "hasphoto": true, "photo": null, "hometown": " BALTIMORE", "latitude": 39.23316, "longitude": -76.63663, "county": "BALTIMORE CITY", "countyid": 510, "badloc": false},
 {"recid": 444, "fname": "MICHAEL ALLEN", "lname": "PIACENTINO", "hasphoto": true, "photo": null, "hometown": " BALTIMORE", "latitude": 39.23316, "longitude": -76.63663, "county": "BALTIMORE CITY", "countyid": 510, "badloc": false},
 {"recid": 445, "fname": "HARVEY TYRONE", "lname": "PINKNEY", "hasphoto": true, "photo": null, "hometown": " LOTHIAN", "latitude": 38.83178, "longitude": -76.61135, "county": "ANNE ARUNDEL", "countyid": 3, "badloc": false},